,id,name,location,categories,referralId,hasPerk,venuePage
0,5686b77338faf7478eb6c6aa,Asian Legend,"{'lat': 43.7265905030894, 'lng': -79.34218786843495, 'labeledLatLngs': [{'label': 'display', 'lat': 43.7265905030894, 'lng': -79.34218786843495}], 'cc': 'CA', 'city': 'Toronto', 'state': 'ON', 'country': 'Canada', 'formattedAddress': ['Toronto ON', 'Canada']}","[{'id': '4bf58dd8d48988d1f5931735', 'name': 'Dim Sum Restaurant', 'pluralName': 'Dim Sum Restaurants', 'shortName': 'Dim Sum', 'icon': {'prefix': 'https://ss3.4sqi.net/img/categories_v2/food/dimsum_', 'suffix': '.png'}, 'primary': True}]",v-1603875900,False,
1,4efbb51bf9ab0847f95ff7a8,Asian Fusion,"{'address': '3850 Sheppard Ave E', 'crossStreet': 'Kennedy Rd', 'lat': 43.78415610599154, 'lng': -79.29276980789129, 'labeledLatLngs': [{'label': 'display', 'lat': 43.78415610599154, 'lng': -79.29276980789129}], 'postalCode': 'M1T 3L4', 'cc': 'CA', 'city': 'Scarborough', 'state': 'ON', 'country': 'Canada', 'formattedAddress': ['3850 Sheppard Ave E (Kennedy Rd)', 'Scarborough ON M1T 3L4', 'Canada']}","[{'id': '4bf58dd8d48988d142941735', 'name': 'Asian Restaurant', 'pluralName': 'Asian Restaurants', 'shortName': 'Asian', 'icon': {'prefix': 'https://ss3.4sqi.net/img/categories_v2/food/asian_', 'suffix': '.png'}, 'primary': True}]",v-1603875900,False,
2,4aebd5a7f964a520f0c421e3,Asian Legend 味香村,"{'address': '125 Ravel Rd', 'crossStreet': 'at Finch Ave E', 'lat': 43.79060809180567, 'lng': -79.36704119272468, 'labeledLatLngs': [{'label': 'display', 'lat': 43.79060809180567, 'lng': -79.36704119272468}], 'cc': 'CA', 'city': 'Toronto', 'state': 'ON', 'country': 'Canada', 'formattedAddress': ['125 Ravel Rd (at Finch Ave E)', 'Toronto ON', 'Canada']}","[{'id': '4bf58dd8d48988d145941735', 'name': 'Chinese Restaurant', 'pluralName': 'Chinese Restaurants', 'shortName': 'Chinese', 'icon': {'prefix': 'https://ss3.4sqi.net/img/categories_v2/food/asian_', 'suffix': '.png'}, 'primary': True}]",v-1603875900,False,
5,4baa44fff964a52082593ae3,Asian Optical,"{'address': '4675 Steeles Ave. E', 'crossStreet': 'in Splendid China Tower', 'lat': 43.824318, 'lng': -79.302799, 'labeledLatLngs': [{'label': 'display', 'lat': 43.824318, 'lng': -79.302799}], 'postalCode': 'M1V 4S5', 'cc': 'CA', 'city': 'Scarborough', 'state': 'ON', 'country': 'Canada', 'formattedAddress': ['4675 Steeles Ave. E (in Splendid China Tower)', 'Scarborough ON M1V 4S5', 'Canada']}","[{'id': '4d954afda243a5684865b473', 'name': 'Optical Shop', 'pluralName': 'Optical Shops', 'shortName': 'Optical', 'icon': {'prefix': 'https://ss3.4sqi.net/img/categories_v2/building/medical_opticalshop_', 'suffix': '.png'}, 'primary': True}]",v-1603875900,False,
6,4c4743d576d72d7fad9b3c4d,Asian Gourmet,"{'address': 'Centrepoint', 'lat': 43.79594, 'lng': -79.42288, 'labeledLatLngs': [{'label': 'display', 'lat': 43.79594, 'lng': -79.42288}], 'cc': 'CA', 'city': 'Toronto', 'state': 'ON', 'country': 'Canada', 'formattedAddress': ['Centrepoint', 'Toronto ON', 'Canada']}","[{'id': '4bf58dd8d48988d142941735', 'name': 'Asian Restaurant', 'pluralName': 'Asian Restaurants', 'shortName': 'Asian', 'icon': {'prefix': 'https://ss3.4sqi.net/img/categories_v2/food/asian_', 'suffix': '.png'}, 'primary': True}]",v-1603875900,False,
7,4c8a5f181797236a0afc6088,Asian Course,"{'lat': 43.81134645979908, 'lng': -79.45406965106741, 'labeledLatLngs': [{'label': 'display', 'lat': 43.81134645979908, 'lng': -79.45406965106741}], 'cc': 'CA', 'city': 'Vaughan', 'state': 'ON', 'country': 'Canada', 'formattedAddress': ['Vaughan ON', 'Canada']}","[{'id': '4bf58dd8d48988d142941735', 'name': 'Asian Restaurant', 'pluralName': 'Asian Restaurants', 'shortName': 'Asian', 'icon': {'prefix': 'https://ss3.4sqi.net/img/categories_v2/food/asian_', 'suffix': '.png'}, 'primary': True}]",v-1603875900,False,
8,517ad207e4b0189bddb434d5,South Asian Autism Awareness Centre,"{'address': '63-705 Progress Avenue', 'lat': 43.775138, 'lng': -79.238008, 'labeledLatLngs': [{'label': 'display', 'lat': 43.775138, 'lng': -79.238008}], 'postalCode': 'M1H 2W1', 'cc': 'CA', 'city': 'Scarborough', 'state': 'ON', 'country': 'Canada', 'formattedAddress': ['63-705 Progress Avenue', 'Scarborough ON M1H 2W1', 'Canada']}",[],v-1603875900,False,
10,5df7c5e6101ef600087c4669,Asian Bay,"{'address': '900 Don Mills Road', 'lat': 43.72719039999999, 'lng': -79.3415565, 'labeledLatLngs': [{'label': 'display', 'lat': 43.72719039999999, 'lng': -79.3415565}], 'postalCode': 'M3C 1V6', 'cc': 'CA', 'city': 'Toronto', 'state': 'ON', 'country': 'Canada', 'formattedAddress': ['900 Don Mills Road', 'Toronto ON M3C 1V6', 'Canada']}","[{'id': '4bf58dd8d48988d111941735', 'name': 'Japanese Restaurant', 'pluralName': 'Japanese Restaurants', 'shortName': 'Japanese', 'icon': {'prefix': 'https://ss3.4sqi.net/img/categories_v2/food/japanese_', 'suffix': '.png'}, 'primary': True}]",v-1603875900,False,{'id': '566087097'}
11,4c7c3d4df56a37043c780746,Asian Garden Chinese Hakka Restaurant,"{'address': '883 16th Ave.', 'crossStreet': 'btwn Bayview & Strathearn', 'lat': 43.85779673244561, 'lng': -79.40688550741197, 'labeledLatLngs': [{'label': 'display', 'lat': 43.85779673244561, 'lng': -79.40688550741197}], 'postalCode': 'L4B 3E5', 'cc': 'CA', 'city': 'Richmond Hill', 'state': 'ON', 'country': 'Canada', 'formattedAddress': ['883 16th Ave. (btwn Bayview & Strathearn)', 'Richmond Hill ON L4B 3E5', 'Canada']}","[{'id': '54135bf5e4b08f3d2429dfdf', 'name': 'Indian Chinese Restaurant', 'pluralName': 'Indian Chinese Restaurants', 'shortName': 'Indian Chinese', 'icon': {'prefix': 'https://ss3.4sqi.net/img/categories_v2/food/default_', 'suffix': '.png'}, 'primary': True}]",v-1603875900,False,
12,4ca8be1a14c337042a15d73b,Asian Food Centre,"{'address': '308 Eddystone Ave', 'lat': 43.7474858, 'lng': -79.5232619, 'labeledLatLngs': [{'label': 'display', 'lat': 43.7474858, 'lng': -79.5232619}], 'postalCode': 'M3N 1H7', 'cc': 'CA', 'city': 'Toronto', 'state': 'ON', 'country': 'Canada', 'formattedAddress': ['308 Eddystone Ave', 'Toronto ON M3N 1H7', 'Canada']}","[{'id': '4bf58dd8d48988d118951735', 'name': 'Grocery Store', 'pluralName': 'Grocery Stores', 'shortName': 'Grocery Store', 'icon': {'prefix': 'https://ss3.4sqi.net/img/categories_v2/shops/food_grocery_', 'suffix': '.png'}, 'primary': True}]",v-1603875900,False,
13,4dd3d24345dd98b61e74f6af,SenseAsian Pan-Asian Resto,"{'address': '40 King St W', 'lat': 43.64961044882256, 'lng': -79.37891234907097, 'labeledLatLngs': [{'label': 'display', 'lat': 43.64961044882256, 'lng': -79.37891234907097}], 'cc': 'CA', 'city': 'Toronto', 'state': 'ON', 'country': 'Canada', 'formattedAddress': ['40 King St W', 'Toronto ON', 'Canada']}","[{'id': '4bf58dd8d48988d142941735', 'name': 'Asian Restaurant', 'pluralName': 'Asian Restaurants', 'shortName': 'Asian', 'icon': {'prefix': 'https://ss3.4sqi.net/img/categories_v2/food/asian_', 'suffix': '.png'}, 'primary': True}]",v-1603875900,False,
14,59a0abc33d47914ccfcbf0be,Le Viet Asian Cuisine 品越,"{'address': '1210 Castlemore Ave', 'crossStreet': 'Markham Rd', 'lat': 43.90442839831646, 'lng': -79.26902712177349, 'labeledLatLngs': [{'label': 'display', 'lat': 43.90442839831646, 'lng': -79.26902712177349}], 'postalCode': 'L6E 0H7', 'cc': 'CA', 'city': 'Markham', 'state': 'ON', 'country': 'Canada', 'formattedAddress': ['1210 Castlemore Ave (Markham Rd)', 'Markham ON L6E 0H7', 'Canada']}","[{'id': '4bf58dd8d48988d14a941735', 'name': 'Vietnamese Restaurant', 'pluralName': 'Vietnamese Restaurants', 'shortName': 'Vietnamese', 'icon': {'prefix': 'https://ss3.4sqi.net/img/categories_v2/food/vietnamese_', 'suffix': '.png'}, 'primary': True}]",v-1603875900,False,
15,4c17b44b4ff90f47924c0d49,Asian Farm,"{'lat': 43.782808, 'lng': -79.292653, 'labeledLatLngs': [{'label': 'display', 'lat': 43.782808, 'lng': -79.292653}], 'cc': 'CA', 'city': 'Toronto Division', 'state': 'ON', 'country': 'Canada', 'formattedAddress': ['Toronto Division ON', 'Canada']}",[],v-1603875900,False,
17,4bb0feb7f964a52021713ce3,Fusia Asian Kitchen,"{'crossStreet': 'Bay and Dundas', 'lat': 43.65617042572259, 'lng': -79.38354857280271, 'labeledLatLngs': [{'label': 'display', 'lat': 43.65617042572259, 'lng': -79.38354857280271}], 'cc': 'CA', 'city': 'Toronto', 'state': 'ON', 'country': 'Canada', 'formattedAddress': ['Toronto ON', 'Canada']}","[{'id': '4bf58dd8d48988d120951735', 'name': 'Food Court', 'pluralName': 'Food Courts', 'shortName': 'Food Court', 'icon': {'prefix': 'https://ss3.4sqi.net/img/categories_v2/shops/food_foodcourt_', 'suffix': '.png'}, 'primary': True}]",v-1603875900,False,
18,5d5ecd3efde1cd0008a9d311,Wong’s Asian Cuisine,"{'address': '2173 Lawrence Ave E', 'lat': 43.747142, 'lng': -79.283748, 'labeledLatLngs': [{'label': 'display', 'lat': 43.747142, 'lng': -79.283748}], 'postalCode': 'M1P', 'cc': 'CA', 'city': 'Scarborough', 'state': 'ON', 'country': 'Canada', 'formattedAddress': ['2173 Lawrence Ave E', 'Scarborough ON M1P', 'Canada']}","[{'id': '52af3ac83cf9994f4e043bf3', 'name': 'Hakka Restaurant', 'pluralName': 'Hakka Restaurants', 'shortName': 'Hakka', 'icon': {'prefix': 'https://ss3.4sqi.net/img/categories_v2/food/asian_', 'suffix': '.png'}, 'primary': True}]",v-1603875900,False,
19,4ae38881f964a520539621e3,Asian Kitchen,"{'address': '3160 steeles avenue', 'lat': 43.815333429268414, 'lng': -79.29885119416369, 'labeledLatLngs': [{'label': 'display', 'lat': 43.815333429268414, 'lng': -79.29885119416369}], 'cc': 'CA', 'city': 'Toronto', 'state': 'ON', 'country': 'Canada', 'formattedAddress': ['3160 steeles avenue', 'Toronto ON', 'Canada']}",[],v-1603875900,False,
20,4f79f9c8e4b0f60afaff9f5d,Asian Specialty,"{'address': '2301 Brimley Rd.', 'crossStreet': 'at Huntingwood Dr.', 'lat': 43.797819, 'lng': -79.270737, 'labeledLatLngs': [{'label': 'display', 'lat': 43.797819, 'lng': -79.270737}], 'postalCode': 'M1S 5B8', 'cc': 'CA', 'city': 'Toronto', 'state': 'ON', 'country': 'Canada', 'formattedAddress': ['2301 Brimley Rd. (at Huntingwood Dr.)', 'Toronto ON M1S 5B8', 'Canada']}","[{'id': '4bf58dd8d48988d14a941735', 'name': 'Vietnamese Restaurant', 'pluralName': 'Vietnamese Restaurants', 'shortName': 'Vietnamese', 'icon': {'prefix': 'https://ss3.4sqi.net/img/categories_v2/food/vietnamese_', 'suffix': '.png'}, 'primary': True}]",v-1603875900,False,
21,4c6164f4de6920a14b2c9864,Asian Acupuncture Clinic,"{'lat': 43.70601767888677, 'lng': -79.4018716631391, 'labeledLatLngs': [{'label': 'display', 'lat': 43.70601767888677, 'lng': -79.4018716631391}], 'cc': 'CA', 'city': 'Toronto', 'state': 'ON', 'country': 'Canada', 'formattedAddress': ['Toronto ON', 'Canada']}",[],v-1603875900,False,
26,4ee62b027beb7e7dadcce36d,Asian Monsoon,"{'address': '1466 Kingston Road', 'lat': 43.68852717458528, 'lng': -79.27019834518433, 'labeledLatLngs': [{'label': 'display', 'lat': 43.68852717458528, 'lng': -79.27019834518433}], 'postalCode': 'M1N 1R6', 'cc': 'CA', 'city': 'Scarborough', 'state': 'ON', 'country': 'Canada', 'formattedAddress': ['1466 Kingston Road', 'Scarborough ON M1N 1R6', 'Canada']}","[{'id': '4bf58dd8d48988d142941735', 'name': 'Asian Restaurant', 'pluralName': 'Asian Restaurants', 'shortName': 'Asian', 'icon': {'prefix': 'https://ss3.4sqi.net/img/categories_v2/food/asian_', 'suffix': '.png'}, 'primary': True}]",v-1603875900,False,
27,4b29158af964a5205a9824e3,Tangerine Asian Cuisine,"{'address': '7690 Markham Rd', 'crossStreet': 'btwn Highglen & 14th', 'lat': 43.85303378895197, 'lng': -79.25603563243043, 'labeledLatLngs': [{'label': 'display', 'lat': 43.85303378895197, 'lng': -79.25603563243043}], 'postalCode': 'L3S 3S1', 'cc': 'CA', 'city': 'Markham', 'state': 'ON', 'country': 'Canada', 'formattedAddress': ['7690 Markham Rd (btwn Highglen & 14th)', 'Markham ON L3S 3S1', 'Canada']}","[{'id': '4bf58dd8d48988d142941735', 'name': 'Asian Restaurant', 'pluralName': 'Asian Restaurants', 'shortName': 'Asian', 'icon': {'prefix': 'https://ss3.4sqi.net/img/categories_v2/food/asian_', 'suffix': '.png'}, 'primary': True}]",v-1603875900,False,
28,5d5c8a7592a9100008f6d945,Asian Fusion Resturant,"{'crossStreet': 'Yonge', 'lat': 43.797966, 'lng': -79.425571, 'labeledLatLngs': [{'label': 'display', 'lat': 43.797966, 'lng': -79.425571}], 'postalCode': 'L4J 7Y1', 'cc': 'CA', 'city': 'Vaughan', 'state': 'ON', 'country': 'Canada', 'formattedAddress': ['Yonge', 'Vaughan ON L4J 7Y1', 'Canada']}","[{'id': '4bf58dd8d48988d113941735', 'name': 'Korean Restaurant', 'pluralName': 'Korean Restaurants', 'shortName': 'Korean', 'icon': {'prefix': 'https://ss3.4sqi.net/img/categories_v2/food/korean_', 'suffix': '.png'}, 'primary': True}]",v-1603875900,False,
30,4aea2b14f964a520ebb921e3,Fine Asian Bowl,"{'address': '271 Yonge St.', 'crossStreet': 'btwn Dundas St. E & Shuter St.', 'lat': 43.6553866, 'lng': -79.3803264, 'labeledLatLngs': [{'label': 'display', 'lat': 43.6553866, 'lng': -79.3803264}], 'postalCode': 'M5B 1N8', 'cc': 'CA', 'city': 'Toronto', 'state': 'ON', 'country': 'Canada', 'formattedAddress': ['271 Yonge St. (btwn Dundas St. E & Shuter St.)', 'Toronto ON M5B 1N8', 'Canada']}","[{'id': '4bf58dd8d48988d14a941735', 'name': 'Vietnamese Restaurant', 'pluralName': 'Vietnamese Restaurants', 'shortName': 'Vietnamese', 'icon': {'prefix': 'https://ss3.4sqi.net/img/categories_v2/food/vietnamese_', 'suffix': '.png'}, 'primary': True}]",v-1603875900,False,
31,5bd9ebd68ad62e002c189ed7,Chi Asian Tapas,"{'lat': 43.710688, 'lng': -79.399181, 'labeledLatLngs': [{'label': 'display', 'lat': 43.710688, 'lng': -79.399181}], 'postalCode': 'M4P 2E7', 'cc': 'CA', 'city': 'Toronto', 'state': 'ON', 'country': 'Canada', 'formattedAddress': ['Toronto ON M4P 2E7', 'Canada']}","[{'id': '4bf58dd8d48988d142941735', 'name': 'Asian Restaurant', 'pluralName': 'Asian Restaurants', 'shortName': 'Asian', 'icon': {'prefix': 'https://ss3.4sqi.net/img/categories_v2/food/asian_', 'suffix': '.png'}, 'primary': True}]",v-1603875900,False,
33,54a51b0b498ea176a1a6ef78,Asian Television Network ATN,"{'address': '330 Cochrane Drive', 'lat': 43.84372794693924, 'lng': -79.35723066329955, 'labeledLatLngs': [{'label': 'display', 'lat': 43.84372794693924, 'lng': -79.35723066329955}], 'postalCode': 'L3R 8E4', 'cc': 'CA', 'city': 'Markham', 'state': 'ON', 'country': 'Canada', 'formattedAddress': ['330 Cochrane Drive', 'Markham ON L3R 8E4', 'Canada']}","[{'id': '4bf58dd8d48988d1ff941735', 'name': 'Miscellaneous Shop', 'pluralName': 'Miscellaneous Shops', 'shortName': 'Shop', 'icon': {'prefix': 'https://ss3.4sqi.net/img/categories_v2/shops/default_', 'suffix': '.png'}, 'primary': True}]",v-1603875900,False,
35,5161cbdfe4b08ccc02faccd9,Asian Television Network,"{'lat': 43.844998118282916, 'lng': -79.36039120648294, 'labeledLatLngs': [{'label': 'display', 'lat': 43.844998118282916, 'lng': -79.36039120648294}], 'cc': 'CA', 'country': 'Canada', 'formattedAddress': ['Canada']}","[{'id': '4bf58dd8d48988d124941735', 'name': 'Office', 'pluralName': 'Offices', 'shortName': 'Office', 'icon': {'prefix': 'https://ss3.4sqi.net/img/categories_v2/building/default_', 'suffix': '.png'}, 'primary': True}]",v-1603875900,False,
36,51ce546a498e9bff944d131a,M2M Asian Grocery,"{'address': '4885 Yonge St.', 'crossStreet': 'at Greenfield Ave.', 'lat': 43.76350878804898, 'lng': -79.41127835858578, 'labeledLatLngs': [{'label': 'display', 'lat': 43.76350878804898, 'lng': -79.41127835858578}], 'postalCode': 'M2N 5Y3', 'cc': 'CA', 'city': 'Toronto', 'state': 'ON', 'country': 'Canada', 'formattedAddress': ['4885 Yonge St. (at Greenfield Ave.)', 'Toronto ON M2N 5Y3', 'Canada']}","[{'id': '4bf58dd8d48988d118951735', 'name': 'Grocery Store', 'pluralName': 'Grocery Stores', 'shortName': 'Grocery Store', 'icon': {'prefix': 'https://ss3.4sqi.net/img/categories_v2/shops/food_grocery_', 'suffix': '.png'}, 'primary': True}]",v-1603875900,False,
38,522deb21abdf65cfbab6fd85,Asian 1,"{'address': '880 Wilson', 'lat': 43.73033519778679, 'lng': -79.46809507960589, 'labeledLatLngs': [{'label': 'display', 'lat': 43.73033519778679, 'lng': -79.46809507960589}], 'postalCode': 'M3K 1E7', 'cc': 'CA', 'city': 'North York', 'state': 'ON', 'country': 'Canada', 'formattedAddress': ['880 Wilson', 'North York ON M3K 1E7', 'Canada']}","[{'id': '4bf58dd8d48988d1ed941735', 'name': 'Spa', 'pluralName': 'Spas', 'shortName': 'Spa', 'icon': {'prefix': 'https://ss3.4sqi.net/img/categories_v2/shops/spa_', 'suffix': '.png'}, 'primary': True}]",v-1603875900,False,
39,4f021289a69d45461fab5ea7,Jocelyn's Asian Cuisine,"{'lat': 43.785086, 'lng': -79.260463, 'labeledLatLngs': [{'label': 'display', 'lat': 43.785086, 'lng': -79.260463}], 'cc': 'CA', 'country': 'Canada', 'formattedAddress': ['Canada']}",[],v-1603875900,False,
40,592dfe72e07550199b783b4e,Lime Asian Kitchen,"{'address': '3243 Yonge Street', 'lat': 43.728995, 'lng': -79.403047, 'labeledLatLngs': [{'label': 'display', 'lat': 43.728995, 'lng': -79.403047}], 'postalCode': 'M4N 2L5', 'cc': 'CA', 'city': 'Toronto', 'state': 'ON', 'country': 'Canada', 'formattedAddress': ['3243 Yonge Street', 'Toronto ON M4N 2L5', 'Canada']}","[{'id': '4bf58dd8d48988d142941735', 'name': 'Asian Restaurant', 'pluralName': 'Asian Restaurants', 'shortName': 'Asian', 'icon': {'prefix': 'https://ss3.4sqi.net/img/categories_v2/food/asian_', 'suffix': '.png'}, 'primary': True}]",v-1603875900,False,
41,522deb21abdf65cfbab6fd9b,Asian Health and Beauty,"{'address': '1942 Eglinton W', 'lat': 43.695164, 'lng': -79.45329, 'labeledLatLngs': [{'label': 'display', 'lat': 43.695164, 'lng': -79.45329}], 'postalCode': 'M6E 2J7', 'cc': 'CA', 'city': 'Toronto', 'state': 'ON', 'country': 'Canada', 'formattedAddress': ['1942 Eglinton W', 'Toronto ON M6E 2J7', 'Canada']}","[{'id': '4bf58dd8d48988d1ed941735', 'name': 'Spa', 'pluralName': 'Spas', 'shortName': 'Spa', 'icon': {'prefix': 'https://ss3.4sqi.net/img/categories_v2/shops/spa_', 'suffix': '.png'}, 'primary': True}]",v-1603875900,False,
44,53ee4293498e3f989e530003,Asian Star,"{'address': '1766 Eglinton Ave. West', 'lat': 43.69619576781626, 'lng': -79.44802591561631, 'labeledLatLngs': [{'label': 'display', 'lat': 43.69619576781626, 'lng': -79.44802591561631}], 'postalCode': 'M6E 2H7', 'cc': 'CA', 'city': 'Toronto', 'state': 'ON', 'country': 'Canada', 'formattedAddress': ['1766 Eglinton Ave. West', 'Toronto ON M6E 2H7', 'Canada']}","[{'id': '4bf58dd8d48988d142941735', 'name': 'Asian Restaurant', 'pluralName': 'Asian Restaurants', 'shortName': 'Asian', 'icon': {'prefix': 'https://ss3.4sqi.net/img/categories_v2/food/asian_', 'suffix': '.png'}, 'primary': True}]",v-1603875900,False,
47,4cb3a9c2ef1b3704b7025400,Asian house,"{'address': '116 twoson rd', 'lat': 43.869613, 'lng': -79.358382, 'labeledLatLngs': [{'label': 'display', 'lat': 43.869613, 'lng': -79.358382}], 'cc': 'CA', 'city': 'Markham', 'state': 'ON', 'country': 'Canada', 'formattedAddress': ['116 twoson rd', 'Markham ON', 'Canada']}",[],v-1603875900,False,
49,4fa986b6e4b06123da14b3e7,Asian Food Market,"{'lat': 43.706851959228516, 'lng': -79.47852325439453, 'labeledLatLngs': [{'label': 'display', 'lat': 43.706851959228516, 'lng': -79.47852325439453}], 'cc': 'CA', 'country': 'Canada', 'formattedAddress': ['Canada']}","[{'id': '4bf58dd8d48988d142941735', 'name': 'Asian Restaurant', 'pluralName': 'Asian Restaurants', 'shortName': 'Asian', 'icon': {'prefix': 'https://ss3.4sqi.net/img/categories_v2/food/asian_', 'suffix': '.png'}, 'primary': True}]",v-1603875900,False,
85,4c1a971cb9f876b0e1e57846,Asian Community AIDS Services (ACAS),"{'address': '260 Spadina Ave, Suite 410', 'crossStreet': 'at Cameron Ave.', 'lat': 43.65199101292225, 'lng': -79.39789295196533, 'labeledLatLngs': [{'label': 'display', 'lat': 43.65199101292225, 'lng': -79.39789295196533}], 'postalCode': 'M5T 2E4', 'cc': 'CA', 'city': 'Toronto', 'state': 'ON', 'country': 'Canada', 'formattedAddress': ['260 Spadina Ave, Suite 410 (at Cameron Ave.)', 'Toronto ON M5T 2E4', 'Canada']}","[{'id': '4bf58dd8d48988d124941735', 'name': 'Office', 'pluralName': 'Offices', 'shortName': 'Office', 'icon': {'prefix': 'https://ss3.4sqi.net/img/categories_v2/building/default_', 'suffix': '.png'}, 'primary': True}]",v-1603875901,False,
99,5224233f2fc6fd4a8cf1ee8f,Toronto Asian Escorts,"{'address': '1075 Bay St #139', 'lat': 43.66776295950206, 'lng': -79.3882155418396, 'labeledLatLngs': [{'label': 'display', 'lat': 43.66776295950206, 'lng': -79.3882155418396}], 'postalCode': 'M5S 2B2', 'cc': 'CA', 'city': 'Toronto', 'state': 'ON', 'country': 'Canada', 'formattedAddress': ['1075 Bay St #139', 'Toronto ON M5S 2B2', 'Canada']}","[{'id': '4bf58dd8d48988d11f941735', 'name': 'Nightclub', 'pluralName': 'Nightclubs', 'shortName': 'Nightclub', 'icon': {'prefix': 'https://ss3.4sqi.net/img/categories_v2/nightlife/nightclub_', 'suffix': '.png'}, 'primary': True}]",v-1603875901,False,
105,4bbe23ad9474c9b6af23d9b6,fu-GEN Asian Canadian Theatre Co.,"{'address': '157 Carlton St.', 'lat': 43.66300080853044, 'lng': -79.37227529855708, 'labeledLatLngs': [{'label': 'display', 'lat': 43.66300080853044, 'lng': -79.37227529855708}], 'cc': 'CA', 'city': 'Toronto', 'state': 'ON', 'country': 'Canada', 'formattedAddress': ['157 Carlton St.', 'Toronto ON', 'Canada']}","[{'id': '4bf58dd8d48988d124941735', 'name': 'Office', 'pluralName': 'Offices', 'shortName': 'Office', 'icon': {'prefix': 'https://ss3.4sqi.net/img/categories_v2/building/default_', 'suffix': '.png'}, 'primary': True}]",v-1603875901,False,
106,4de827e4d4c0faa56428a51a,Yulla Asian Fusion Restaurant,"{'lat': 43.651587, 'lng': -79.379232, 'labeledLatLngs': [{'label': 'display', 'lat': 43.651587, 'lng': -79.379232}], 'cc': 'CA', 'city': 'Toronto', 'state': 'ON', 'country': 'Canada', 'formattedAddress': ['Toronto ON', 'Canada']}","[{'id': '4bf58dd8d48988d142941735', 'name': 'Asian Restaurant', 'pluralName': 'Asian Restaurants', 'shortName': 'Asian', 'icon': {'prefix': 'https://ss3.4sqi.net/img/categories_v2/food/asian_', 'suffix': '.png'}, 'primary': True}]",v-1603875901,False,
110,4b1be39df964a5209cfe23e3,Chic Chinoise Pan Asian Cuisine,"{'address': '214 King St. W', 'crossStreet': 'Simcoe', 'lat': 43.647074087706535, 'lng': -79.38617571756487, 'labeledLatLngs': [{'label': 'display', 'lat': 43.647074087706535, 'lng': -79.38617571756487}], 'cc': 'CA', 'city': 'Toronto', 'state': 'ON', 'country': 'Canada', 'formattedAddress': ['214 King St. W (Simcoe)', 'Toronto ON', 'Canada']}","[{'id': '4bf58dd8d48988d142941735', 'name': 'Asian Restaurant', 'pluralName': 'Asian Restaurants', 'shortName': 'Asian', 'icon': {'prefix': 'https://ss3.4sqi.net/img/categories_v2/food/asian_', 'suffix': '.png'}, 'primary': True}]",v-1603875901,False,
111,4c62e74a79d1e21e7340d715,Lotus Leaf Asian Cuisine,"{'address': '200 Elizabeth', 'crossStreet': 'Elizabeth Ave & University', 'lat': 43.659215710562954, 'lng': -79.38935360567741, 'labeledLatLngs': [{'label': 'display', 'lat': 43.659215710562954, 'lng': -79.38935360567741}], 'postalCode': 'M5G', 'cc': 'CA', 'city': 'Toronto', 'state': 'ON', 'country': 'Canada', 'formattedAddress': ['200 Elizabeth (Elizabeth Ave & University)', 'Toronto ON M5G', 'Canada']}","[{'id': '4bf58dd8d48988d142941735', 'name': 'Asian Restaurant', 'pluralName': 'Asian Restaurants', 'shortName': 'Asian', 'icon': {'prefix': 'https://ss3.4sqi.net/img/categories_v2/food/asian_', 'suffix': '.png'}, 'primary': True}]",v-1603875901,False,
114,4fcd193a754a56793a2651a5,Tasty Asian Cuisine,"{'address': '649 Yonge St.', 'crossStreet': 'btwn Charles & Isabella', 'lat': 43.66794921757952, 'lng': -79.3856406211853, 'labeledLatLngs': [{'label': 'display', 'lat': 43.66794921757952, 'lng': -79.3856406211853}], 'postalCode': 'M4Y 1Z9', 'cc': 'CA', 'city': 'Toronto', 'state': 'ON', 'country': 'Canada', 'formattedAddress': ['649 Yonge St. (btwn Charles & Isabella)', 'Toronto ON M4Y 1Z9', 'Canada']}","[{'id': '4bf58dd8d48988d142941735', 'name': 'Asian Restaurant', 'pluralName': 'Asian Restaurants', 'shortName': 'Asian', 'icon': {'prefix': 'https://ss3.4sqi.net/img/categories_v2/food/asian_', 'suffix': '.png'}, 'primary': True}]",v-1603875901,False,
121,4ae31ac7f964a520799021e3,East Restaurant Asian Street Flair,"{'address': '240 Queen Street West', 'crossStreet': 'Queen and John', 'lat': 43.64998452583986, 'lng': -79.39056268913188, 'labeledLatLngs': [{'label': 'display', 'lat': 43.64998452583986, 'lng': -79.39056268913188}], 'postalCode': 'M5v1z7', 'cc': 'CA', 'city': 'Toronto', 'state': 'ON', 'country': 'Canada', 'formattedAddress': ['240 Queen Street West (Queen and John)', 'Toronto ON M5v1z7', 'Canada']}","[{'id': '4bf58dd8d48988d142941735', 'name': 'Asian Restaurant', 'pluralName': 'Asian Restaurants', 'shortName': 'Asian', 'icon': {'prefix': 'https://ss3.4sqi.net/img/categories_v2/food/asian_', 'suffix': '.png'}, 'primary': True}]",v-1603875901,False,
123,582e3fa85e56b4259dc5f751,Lee Chen Asian Bistro,"{'address': '214 King St W', 'crossStreet': 'Simcoe St', 'lat': 43.64700977986747, 'lng': -79.38653557408938, 'labeledLatLngs': [{'label': 'display', 'lat': 43.64700977986747, 'lng': -79.38653557408938}], 'postalCode': 'M5H 3S6', 'cc': 'CA', 'neighborhood': 'Entertainment District, Toronto, ON', 'city': 'Toronto', 'state': 'ON', 'country': 'Canada', 'formattedAddress': ['214 King St W (Simcoe St)', 'Toronto ON M5H 3S6', 'Canada']}","[{'id': '4bf58dd8d48988d142941735', 'name': 'Asian Restaurant', 'pluralName': 'Asian Restaurants', 'shortName': 'Asian', 'icon': {'prefix': 'https://ss3.4sqi.net/img/categories_v2/food/asian_', 'suffix': '.png'}, 'primary': True}]",v-1603875901,False,
125,4e9480a0be7b8f72203ca661,ROM - Sir Christopher Ondaatje South Asian Gallery,"{'address': ""100 Queen's Park"", 'crossStreet': 'Bloor', 'lat': 43.666882, 'lng': -79.394639, 'labeledLatLngs': [{'label': 'display', 'lat': 43.666882, 'lng': -79.394639}], 'postalCode': 'M5S 2C6', 'cc': 'CA', 'city': 'Toronto', 'state': 'ON', 'country': 'Canada', 'formattedAddress': [""100 Queen's Park (Bloor)"", 'Toronto ON M5S 2C6', 'Canada']}","[{'id': '4bf58dd8d48988d190941735', 'name': 'History Museum', 'pluralName': 'History Museums', 'shortName': 'History Museum', 'icon': {'prefix': 'https://ss3.4sqi.net/img/categories_v2/arts_entertainment/museum_history_', 'suffix': '.png'}, 'primary': True}]",v-1603875901,False,
128,4b62563df964a52004432ae3,Zyng Asian Grill,"{'address': '730 Yonge Street', 'lat': 43.66874459026651, 'lng': -79.38609486619072, 'labeledLatLngs': [{'label': 'display', 'lat': 43.66874459026651, 'lng': -79.38609486619072}], 'postalCode': 'M4Y 2BY', 'cc': 'CA', 'city': 'Toronto', 'state': 'ON', 'country': 'Canada', 'formattedAddress': ['730 Yonge Street', 'Toronto ON M4Y 2BY', 'Canada']}","[{'id': '4bf58dd8d48988d142941735', 'name': 'Asian Restaurant', 'pluralName': 'Asian Restaurants', 'shortName': 'Asian', 'icon': {'prefix': 'https://ss3.4sqi.net/img/categories_v2/food/asian_', 'suffix': '.png'}, 'primary': True}]",v-1603875901,False,
129,4e41ccee091a52d41b692213,Cheng Yu Tung East Asian Library,"{'address': '130 St. George St.', 'crossStreet': 'Robarts 8th Floor', 'lat': 43.66465663282969, 'lng': -79.39899265766144, 'labeledLatLngs': [{'label': 'display', 'lat': 43.66465663282969, 'lng': -79.39899265766144}], 'postalCode': 'M5S 1A5', 'cc': 'CA', 'city': 'Toronto', 'state': 'ON', 'country': 'Canada', 'formattedAddress': ['130 St. George St. (Robarts 8th Floor)', 'Toronto ON M5S 1A5', 'Canada']}","[{'id': '4bf58dd8d48988d1a7941735', 'name': 'College Library', 'pluralName': 'College Libraries', 'shortName': 'Library', 'icon': {'prefix': 'https://ss3.4sqi.net/img/categories_v2/building/library_', 'suffix': '.png'}, 'primary': True}]",v-1603875901,False,
131,4e9a28752c5b4d6405424a47,Lee Chen Asian Diner,"{'address': '832 Yonge St.', 'crossStreet': 'at Bloor St.', 'lat': 43.6712884023723, 'lng': -79.38737380901318, 'labeledLatLngs': [{'label': 'display', 'lat': 43.6712884023723, 'lng': -79.38737380901318}], 'postalCode': 'M4W 1J5', 'cc': 'CA', 'city': 'Toronto', 'state': 'ON', 'country': 'Canada', 'formattedAddress': ['832 Yonge St. (at Bloor St.)', 'Toronto ON M4W 1J5', 'Canada']}","[{'id': '4bf58dd8d48988d108941735', 'name': 'Dumpling Restaurant', 'pluralName': 'Dumpling Restaurants', 'shortName': 'Dumplings', 'icon': {'prefix': 'https://ss3.4sqi.net/img/categories_v2/food/dumplings_', 'suffix': '.png'}, 'primary': True}]",v-1603875901,False,
134,4cd9d6db86846dcbeaadd386,Reel Asian Red Carpet,"{'lat': 43.665231, 'lng': -79.410751, 'labeledLatLngs': [{'label': 'display', 'lat': 43.665231, 'lng': -79.410751}], 'cc': 'CA', 'country': 'Canada', 'formattedAddress': ['Canada']}","[{'id': '4bf58dd8d48988d17f941735', 'name': 'Movie Theater', 'pluralName': 'Movie Theaters', 'shortName': 'Movie Theater', 'icon': {'prefix': 'https://ss3.4sqi.net/img/categories_v2/arts_entertainment/movietheater_', 'suffix': '.png'}, 'primary': True}]",v-1603875901,False,
144,5b808648b9a5a8002c4f6085,Ot Xanh Asian Green Pepper,"{'lat': 43.682151, 'lng': -79.423798, 'labeledLatLngs': [{'label': 'display', 'lat': 43.682151, 'lng': -79.423798}], 'postalCode': 'M6C 1A9', 'cc': 'CA', 'city': 'Toronto', 'state': 'ON', 'country': 'Canada', 'formattedAddress': ['Toronto ON M6C 1A9', 'Canada']}","[{'id': '4bf58dd8d48988d14a941735', 'name': 'Vietnamese Restaurant', 'pluralName': 'Vietnamese Restaurants', 'shortName': 'Vietnamese', 'icon': {'prefix': 'https://ss3.4sqi.net/img/categories_v2/food/vietnamese_', 'suffix': '.png'}, 'primary': True}]",v-1603875901,False,
145,53e40006498e6613be82b852,Bazara Asian Cuisine,"{'address': '118 Ossington', 'lat': 43.68482372077114, 'lng': -79.42362166985845, 'labeledLatLngs': [{'label': 'display', 'lat': 43.68482372077114, 'lng': -79.42362166985845}], 'cc': 'CA', 'city': 'Toronto', 'state': 'ON', 'country': 'Canada', 'formattedAddress': ['118 Ossington', 'Toronto ON', 'Canada']}","[{'id': '4bf58dd8d48988d142941735', 'name': 'Asian Restaurant', 'pluralName': 'Asian Restaurants', 'shortName': 'Asian', 'icon': {'prefix': 'https://ss3.4sqi.net/img/categories_v2/food/asian_', 'suffix': '.png'}, 'primary': True}]",v-1603875901,False,
148,4fff3dade4b03c9810038f96,Vanipha Asian Gourmet Catering,"{'crossStreet': 'Dupont', 'lat': 43.669497, 'lng': -79.439097, 'labeledLatLngs': [{'label': 'display', 'lat': 43.669497, 'lng': -79.439097}], 'cc': 'CA', 'city': 'Toronto', 'state': 'ON', 'country': 'Canada', 'formattedAddress': ['Dupont', 'Toronto ON', 'Canada']}","[{'id': '4bf58dd8d48988d149941735', 'name': 'Thai Restaurant', 'pluralName': 'Thai Restaurants', 'shortName': 'Thai', 'icon': {'prefix': 'https://ss3.4sqi.net/img/categories_v2/food/thai_', 'suffix': '.png'}, 'primary': True}]",v-1603875901,False,
149,4baa41f4f964a5204d583ae3,Asian Wok 'n' Roll,"{'address': '2919 Derry Rd. E', 'crossStreet': 'at Airport Rd.', 'lat': 43.70332601609809, 'lng': -79.64307407376991, 'labeledLatLngs': [{'label': 'display', 'lat': 43.70332601609809, 'lng': -79.64307407376991}], 'postalCode': 'L4T 1A6', 'cc': 'CA', 'city': 'Mississauga', 'state': 'ON', 'country': 'Canada', 'formattedAddress': ['2919 Derry Rd. E (at Airport Rd.)', 'Mississauga ON L4T 1A6', 'Canada']}","[{'id': '4bf58dd8d48988d145941735', 'name': 'Chinese Restaurant', 'pluralName': 'Chinese Restaurants', 'shortName': 'Chinese', 'icon': {'prefix': 'https://ss3.4sqi.net/img/categories_v2/food/asian_', 'suffix': '.png'}, 'primary': True}]",v-1603875901,False,
157,5042a1ede4b02607d0f2eeab,FV Foods (Filipino Bakery & Asian Cuisine),"{'address': '280 Wilson Ave', 'crossStreet': 'Bathhurst St', 'lat': 43.73748741855667, 'lng': -79.43442072982069, 'labeledLatLngs': [{'label': 'display', 'lat': 43.73748741855667, 'lng': -79.43442072982069}], 'postalCode': 'M3H 1S8', 'cc': 'CA', 'city': 'North York', 'state': 'ON', 'country': 'Canada', 'formattedAddress': ['280 Wilson Ave (Bathhurst St)', 'North York ON M3H 1S8', 'Canada']}","[{'id': '4eb1bd1c3b7b55596b4a748f', 'name': 'Filipino Restaurant', 'pluralName': 'Filipino Restaurants', 'shortName': 'Filipino', 'icon': {'prefix': 'https://ss3.4sqi.net/img/categories_v2/food/filipino_', 'suffix': '.png'}, 'primary': True}]",v-1603875901,False,
174,4ffa24b4e4b083d14d7c2fbe,Pineapple King Asian Kitchen,"{'address': '1766 Eglinton Avenue', 'crossStreet': 'Dufferin Street', 'lat': 43.69563726944946, 'lng': -79.44928963861004, 'labeledLatLngs': [{'label': 'display', 'lat': 43.69563726944946, 'lng': -79.44928963861004}], 'cc': 'CA', 'city': 'Toronto', 'state': 'ON', 'country': 'Canada', 'formattedAddress': ['1766 Eglinton Avenue (Dufferin Street)', 'Toronto ON', 'Canada']}","[{'id': '4bf58dd8d48988d142941735', 'name': 'Asian Restaurant', 'pluralName': 'Asian Restaurants', 'shortName': 'Asian', 'icon': {'prefix': 'https://ss3.4sqi.net/img/categories_v2/food/asian_', 'suffix': '.png'}, 'primary': True}]",v-1603875901,False,{'id': '35417073'}
176,522deb21abdf65cfbab6fdb3,Asian Health Spa,"{'address': '51 Beverley Hills', 'lat': 43.718047, 'lng': -79.513893, 'labeledLatLngs': [{'label': 'display', 'lat': 43.718047, 'lng': -79.513893}], 'postalCode': 'M5T 2R9', 'cc': 'CA', 'city': 'North York', 'state': 'ON', 'country': 'Canada', 'formattedAddress': ['51 Beverley Hills', 'North York ON M5T 2R9', 'Canada']}","[{'id': '4bf58dd8d48988d1ed941735', 'name': 'Spa', 'pluralName': 'Spas', 'shortName': 'Spa', 'icon': {'prefix': 'https://ss3.4sqi.net/img/categories_v2/shops/spa_', 'suffix': '.png'}, 'primary': True}]",v-1603875901,False,
181,5239e9808bbd70cc8230a05c,Duckee Asian Food,"{'address': '525 Eglinton Avenue West', 'crossStreet': 'Eglinton Ave west at Avenue Rd', 'lat': 43.70326571547134, 'lng': -79.41458702087402, 'labeledLatLngs': [{'label': 'display', 'lat': 43.70326571547134, 'lng': -79.41458702087402}], 'postalCode': 'M5N 1B1', 'cc': 'CA', 'city': 'Toronto', 'state': 'ON', 'country': 'Canada', 'formattedAddress': ['525 Eglinton Avenue West (Eglinton Ave west at Avenue Rd)', 'Toronto ON M5N 1B1', 'Canada']}","[{'id': '4bf58dd8d48988d142941735', 'name': 'Asian Restaurant', 'pluralName': 'Asian Restaurants', 'shortName': 'Asian', 'icon': {'prefix': 'https://ss3.4sqi.net/img/categories_v2/food/asian_', 'suffix': '.png'}, 'primary': True}]",v-1603875901,False,
194,4ddeda0752b155583e0bf294,Asian Fast Food,"{'lat': 43.80186289795806, 'lng': -79.4925039899388, 'labeledLatLngs': [{'label': 'display', 'lat': 43.80186289795806, 'lng': -79.4925039899388}], 'cc': 'CA', 'city': 'Vaughan', 'state': 'ON', 'country': 'Canada', 'formattedAddress': ['Vaughan ON', 'Canada']}","[{'id': '4bf58dd8d48988d142941735', 'name': 'Asian Restaurant', 'pluralName': 'Asian Restaurants', 'shortName': 'Asian', 'icon': {'prefix': 'https://ss3.4sqi.net/img/categories_v2/food/asian_', 'suffix': '.png'}, 'primary': True}]",v-1603875901,False,
195,5373f5cd498e6b4ca04b2ef7,Asian Express,"{'address': '250 Wincott Dr Unit 3', 'crossStreet': 'Wincott Dr/Eglinton Ave W', 'lat': 43.67945746920416, 'lng': -79.54632995855519, 'labeledLatLngs': [{'label': 'display', 'lat': 43.67945746920416, 'lng': -79.54632995855519}], 'postalCode': 'M9R 2R5', 'cc': 'CA', 'city': 'Etobicoke', 'state': 'ON', 'country': 'Canada', 'formattedAddress': ['250 Wincott Dr Unit 3 (Wincott Dr/Eglinton Ave W)', 'Etobicoke ON M9R 2R5', 'Canada']}","[{'id': '4bf58dd8d48988d142941735', 'name': 'Asian Restaurant', 'pluralName': 'Asian Restaurants', 'shortName': 'Asian', 'icon': {'prefix': 'https://ss3.4sqi.net/img/categories_v2/food/asian_', 'suffix': '.png'}, 'primary': True}]",v-1603875901,False,
198,4cf28de0e9425481dcd170c5,Asian Gourmet (Albion Mall),"{'address': '1530 Albion Road', 'crossStreet': 'Kipling Ave', 'lat': 43.742282, 'lng': -79.583552, 'labeledLatLngs': [{'label': 'display', 'lat': 43.742282, 'lng': -79.583552}], 'postalCode': 'M9V 1B4', 'cc': 'CA', 'city': 'Toronto', 'state': 'ON', 'country': 'Canada', 'formattedAddress': ['1530 Albion Road (Kipling Ave)', 'Toronto ON M9V 1B4', 'Canada']}","[{'id': '4bf58dd8d48988d145941735', 'name': 'Chinese Restaurant', 'pluralName': 'Chinese Restaurants', 'shortName': 'Chinese', 'icon': {'prefix': 'https://ss3.4sqi.net/img/categories_v2/food/asian_', 'suffix': '.png'}, 'primary': True}]",v-1603875901,False,
246,4f75f671e4b0b24b0c50ddb6,South Asian Women's Centre,"{'address': '800 Lansdowne Ave', 'crossStreet': 'Lansdowne & Dupont', 'lat': 43.665288, 'lng': -79.445727, 'labeledLatLngs': [{'label': 'display', 'lat': 43.665288, 'lng': -79.445727}], 'cc': 'CA', 'city': 'Toronto', 'state': 'ON', 'country': 'Canada', 'formattedAddress': ['800 Lansdowne Ave (Lansdowne & Dupont)', 'Toronto ON', 'Canada']}","[{'id': '4bf58dd8d48988d124941735', 'name': 'Office', 'pluralName': 'Offices', 'shortName': 'Office', 'icon': {'prefix': 'https://ss3.4sqi.net/img/categories_v2/building/default_', 'suffix': '.png'}, 'primary': True}]",v-1603875902,False,
253,5255fb3d498e052958cd5aad,MAI Bistro - Asian-Latin Tapas,"{'address': '4906 Dundas St. W.', 'lat': 43.64920012371433, 'lng': -79.52849031043444, 'labeledLatLngs': [{'label': 'display', 'lat': 43.64920012371433, 'lng': -79.52849031043444}], 'postalCode': 'M9A 1B5', 'cc': 'CA', 'city': 'Toronto', 'state': 'ON', 'country': 'Canada', 'formattedAddress': ['4906 Dundas St. W.', 'Toronto ON M9A 1B5', 'Canada']}","[{'id': '4bf58dd8d48988d1db931735', 'name': 'Tapas Restaurant', 'pluralName': 'Tapas Restaurants', 'shortName': 'Tapas', 'icon': {'prefix': 'https://ss3.4sqi.net/img/categories_v2/food/tapas_', 'suffix': '.png'}, 'primary': True}]",v-1603875902,False,
269,4b9d791df964a52013af36e3,Asian Buffet,"{'address': '161 Rexdale Blvd.', 'lat': 43.71100888025233, 'lng': -79.56866575690485, 'labeledLatLngs': [{'label': 'display', 'lat': 43.71100888025233, 'lng': -79.56866575690485}], 'cc': 'CA', 'city': 'Etobicoke', 'state': 'ON', 'country': 'Canada', 'formattedAddress': ['161 Rexdale Blvd.', 'Etobicoke ON', 'Canada']}","[{'id': '4bf58dd8d48988d145941735', 'name': 'Chinese Restaurant', 'pluralName': 'Chinese Restaurants', 'shortName': 'Chinese', 'icon': {'prefix': 'https://ss3.4sqi.net/img/categories_v2/food/asian_', 'suffix': '.png'}, 'primary': True}]",v-1603875902,False,
275,4fd6734ee4b0b31b85ca1878,My Scoop Asian Cuisine,"{'address': '320 Main St. N', 'crossStreet': 'at Vodden St.', 'lat': 43.693011177246795, 'lng': -79.76842403411865, 'labeledLatLngs': [{'label': 'display', 'lat': 43.693011177246795, 'lng': -79.76842403411865}], 'postalCode': 'L6V 4A3', 'cc': 'CA', 'city': 'Brampton', 'state': 'ON', 'country': 'Canada', 'formattedAddress': ['320 Main St. N (at Vodden St.)', 'Brampton ON L6V 4A3', 'Canada']}","[{'id': '4bf58dd8d48988d145941735', 'name': 'Chinese Restaurant', 'pluralName': 'Chinese Restaurants', 'shortName': 'Chinese', 'icon': {'prefix': 'https://ss3.4sqi.net/img/categories_v2/food/asian_', 'suffix': '.png'}, 'primary': True}]",v-1603875902,False,
281,58a89e1113af1c61179bd2a8,Asian Food Center,"{'lat': 43.740623, 'lng': -79.60437, 'labeledLatLngs': [{'label': 'display', 'lat': 43.740623, 'lng': -79.60437}], 'postalCode': 'M9V 3Y6', 'cc': 'CA', 'state': 'Ontario', 'country': 'Canada', 'formattedAddress': ['ON M9V 3Y6', 'Canada']}","[{'id': '4bf58dd8d48988d118951735', 'name': 'Grocery Store', 'pluralName': 'Grocery Stores', 'shortName': 'Grocery Store', 'icon': {'prefix': 'https://ss3.4sqi.net/img/categories_v2/shops/food_grocery_', 'suffix': '.png'}, 'primary': True}]",v-1603875902,False,
286,56d8c795498e11eed62df733,Kaboodles Asian Fusion Canteen,"{'address': '2491 Lakeshore West', 'lat': 43.613365083853274, 'lng': -79.48956032579427, 'labeledLatLngs': [{'label': 'display', 'lat': 43.613365083853274, 'lng': -79.48956032579427}], 'cc': 'CA', 'city': 'Etobicoke', 'state': 'ON', 'country': 'Canada', 'formattedAddress': ['2491 Lakeshore West', 'Etobicoke ON', 'Canada']}","[{'id': '4bf58dd8d48988d1d1941735', 'name': 'Noodle House', 'pluralName': 'Noodle Houses', 'shortName': 'Noodles', 'icon': {'prefix': 'https://ss3.4sqi.net/img/categories_v2/food/ramen_', 'suffix': '.png'}, 'primary': True}]",v-1603875902,False,
297,4b9924aaf964a5205e6435e3,Golden Asian,"{'address': '123 - #7 Rexdale Blvd.', 'lat': 43.71124779631982, 'lng': -79.56596849779808, 'labeledLatLngs': [{'label': 'display', 'lat': 43.71124779631982, 'lng': -79.56596849779808}], 'cc': 'CA', 'city': 'Toronto', 'state': 'ON', 'country': 'Canada', 'formattedAddress': ['123 - #7 Rexdale Blvd.', 'Toronto ON', 'Canada']}","[{'id': '4bf58dd8d48988d142941735', 'name': 'Asian Restaurant', 'pluralName': 'Asian Restaurants', 'shortName': 'Asian', 'icon': {'prefix': 'https://ss3.4sqi.net/img/categories_v2/food/asian_', 'suffix': '.png'}, 'primary': True}]",v-1603875902,False,
298,54c2e503498e46243099a223,Asian Munchies,"{'lat': 43.77341886051, 'lng': -79.625816848129, 'labeledLatLngs': [{'label': 'display', 'lat': 43.77341886051, 'lng': -79.625816848129}], 'cc': 'CA', 'city': 'Vaughan', 'state': 'ON', 'country': 'Canada', 'formattedAddress': ['Vaughan ON', 'Canada']}","[{'id': '52af3a7c3cf9994f4e043bed', 'name': 'Cantonese Restaurant', 'pluralName': 'Cantonese Restaurants', 'shortName': 'Cantonese', 'icon': {'prefix': 'https://ss3.4sqi.net/img/categories_v2/food/asian_', 'suffix': '.png'}, 'primary': True}]",v-1603875902,False,
325,4fbc28fae4b08c2bc7ded76f,Asian Village Restaurant,"{'lat': 43.868235, 'lng': -79.038408, 'labeledLatLngs': [{'label': 'display', 'lat': 43.868235, 'lng': -79.038408}], 'cc': 'CA', 'country': 'Canada', 'formattedAddress': ['Canada']}","[{'id': '4bf58dd8d48988d145941735', 'name': 'Chinese Restaurant', 'pluralName': 'Chinese Restaurants', 'shortName': 'Chinese', 'icon': {'prefix': 'https://ss3.4sqi.net/img/categories_v2/food/asian_', 'suffix': '.png'}, 'primary': True}]",v-1603875902,False,
327,4cf92de87b44224b9263d305,Phoenix Pan Asian Cuisine,"{'address': '3730 Kingston Rd.', 'lat': 43.74613, 'lng': -79.209647, 'labeledLatLngs': [{'label': 'display', 'lat': 43.74613, 'lng': -79.209647}], 'cc': 'CA', 'city': 'Toronto', 'state': 'ON', 'country': 'Canada', 'formattedAddress': ['3730 Kingston Rd.', 'Toronto ON', 'Canada']}","[{'id': '4bf58dd8d48988d145941735', 'name': 'Chinese Restaurant', 'pluralName': 'Chinese Restaurants', 'shortName': 'Chinese', 'icon': {'prefix': 'https://ss3.4sqi.net/img/categories_v2/food/asian_', 'suffix': '.png'}, 'primary': True}]",v-1603875902,False,
333,4dc31fcd1f6ef43b89db7644,Asian Delight,"{'lat': 43.857333, 'lng': -79.0066815, 'labeledLatLngs': [{'label': 'display', 'lat': 43.857333, 'lng': -79.0066815}], 'cc': 'CA', 'city': 'Ajax', 'state': 'ON', 'country': 'Canada', 'formattedAddress': ['Ajax ON', 'Canada']}","[{'id': '4bf58dd8d48988d142941735', 'name': 'Asian Restaurant', 'pluralName': 'Asian Restaurants', 'shortName': 'Asian', 'icon': {'prefix': 'https://ss3.4sqi.net/img/categories_v2/food/asian_', 'suffix': '.png'}, 'primary': True}]",v-1603875902,False,
335,5c38e4a7f00a70002cad48fd,South Asian Bakery,"{'lat': 43.907136, 'lng': -79.266664, 'labeledLatLngs': [{'label': 'display', 'lat': 43.907136, 'lng': -79.266664}], 'postalCode': 'L6E 0B7', 'cc': 'CA', 'city': 'Markham', 'state': 'ON', 'country': 'Canada', 'formattedAddress': ['Markham ON L6E 0B7', 'Canada']}","[{'id': '5413605de4b0ae91d18581a9', 'name': 'Sri Lankan Restaurant', 'pluralName': 'Sri Lankan Restaurants', 'shortName': 'Sri Lankan', 'icon': {'prefix': 'https://ss3.4sqi.net/img/categories_v2/food/default_', 'suffix': '.png'}, 'primary': True}]",v-1603875902,False,
339,53cff5c7498e69e1d894b018,Chef Danny Pan-Asian Cuisine,"{'address': '12-670 Highway 7 E', 'lat': 43.846453, 'lng': -79.379569, 'labeledLatLngs': [{'label': 'display', 'lat': 43.846453, 'lng': -79.379569}], 'postalCode': 'L4B 3P2', 'cc': 'CA', 'city': 'Richmond Hill', 'state': 'ON', 'country': 'Canada', 'formattedAddress': ['12-670 Highway 7 E', 'Richmond Hill ON L4B 3P2', 'Canada']}","[{'id': '4bf58dd8d48988d149941735', 'name': 'Thai Restaurant', 'pluralName': 'Thai Restaurants', 'shortName': 'Thai', 'icon': {'prefix': 'https://ss3.4sqi.net/img/categories_v2/food/thai_', 'suffix': '.png'}, 'primary': True}]",v-1603875902,False,
341,5f4f3a37fc9d580dd7e88e36,Purple Bubble Asian Cuisine,"{'address': '135 Harwood Ave N. Unit B202', 'lat': 43.86337530432825, 'lng': -79.02513027191162, 'labeledLatLngs': [{'label': 'display', 'lat': 43.86337530432825, 'lng': -79.02513027191162}], 'postalCode': 'L1Z 1E8', 'cc': 'CA', 'city': 'Ajax', 'state': 'ON', 'country': 'Canada', 'formattedAddress': ['135 Harwood Ave N. Unit B202', 'Ajax ON L1Z 1E8', 'Canada']}","[{'id': '4bf58dd8d48988d142941735', 'name': 'Asian Restaurant', 'pluralName': 'Asian Restaurants', 'shortName': 'Asian', 'icon': {'prefix': 'https://ss3.4sqi.net/img/categories_v2/food/asian_', 'suffix': '.png'}, 'primary': True}]",v-1603875902,False,
344,5dec3983a5bc0c000b66b710,Sweetie Bear Asian Snack Centre,"{'address': '145 Kingston Rd E', 'lat': 43.8619713, 'lng': -79.0176217, 'labeledLatLngs': [{'label': 'display', 'lat': 43.8619713, 'lng': -79.0176217}], 'postalCode': 'L1S 7J4', 'cc': 'CA', 'city': 'Ajax', 'state': 'ON', 'country': 'Canada', 'formattedAddress': ['145 Kingston Rd E', 'Ajax ON L1S 7J4', 'Canada']}","[{'id': '4bf58dd8d48988d117951735', 'name': 'Candy Store', 'pluralName': 'Candy Stores', 'shortName': 'Candy Store', 'icon': {'prefix': 'https://ss3.4sqi.net/img/categories_v2/shops/candystore_', 'suffix': '.png'}, 'primary': True}]",v-1603875902,False,{'id': '571306359'}
345,59d02406acb00b0e481b3dfc,Mosaic Southeast Asian Cuisine 星馬越餐廳,"{'address': '16 Vogell Road Unit B', 'lat': 43.86404, 'lng': -79.383179, 'labeledLatLngs': [{'label': 'display', 'lat': 43.86404, 'lng': -79.383179}], 'postalCode': 'L4B 3K4', 'cc': 'CA', 'city': 'Richmond Hill', 'state': 'ON', 'country': 'Canada', 'formattedAddress': ['16 Vogell Road Unit B', 'Richmond Hill ON L4B 3K4', 'Canada']}","[{'id': '4bf58dd8d48988d156941735', 'name': 'Malay Restaurant', 'pluralName': 'Malay Restaurants', 'shortName': 'Malay', 'icon': {'prefix': 'https://ss3.4sqi.net/img/categories_v2/food/malaysian_', 'suffix': '.png'}, 'primary': True}]",v-1603875902,False,
581,4bd5cfbb6798ef3b7303648d,Kemar Asian Market,"{'address': '925 Rathburn Rd. E., # C-4', 'lat': 43.61586, 'lng': -79.61762, 'labeledLatLngs': [{'label': 'display', 'lat': 43.61586, 'lng': -79.61762}], 'cc': 'CA', 'city': 'Peel Regional Municipality', 'state': 'ON', 'country': 'Canada', 'formattedAddress': ['925 Rathburn Rd. E., # C-4', 'Peel Regional Municipality ON', 'Canada']}",[],v-1603875904,False,
586,4e372b7562e1a8e9cc4328f5,Asian Point,"{'lat': 43.590533, 'lng': -79.679631, 'labeledLatLngs': [{'label': 'display', 'lat': 43.590533, 'lng': -79.679631}], 'cc': 'CA', 'city': 'Mississauga', 'state': 'ON', 'country': 'Canada', 'formattedAddress': ['Mississauga ON', 'Canada']}","[{'id': '4bf58dd8d48988d118951735', 'name': 'Grocery Store', 'pluralName': 'Grocery Stores', 'shortName': 'Grocery Store', 'icon': {'prefix': 'https://ss3.4sqi.net/img/categories_v2/shops/food_grocery_', 'suffix': '.png'}, 'primary': True}]",v-1603875904,False,
589,4bba4ec698c7ef3b2df13202,Asian Flavour,"{'lat': 43.577086, 'lng': -79.684431, 'labeledLatLngs': [{'label': 'display', 'lat': 43.577086, 'lng': -79.684431}], 'cc': 'CA', 'city': 'Mississauga', 'state': 'ON', 'country': 'Canada', 'formattedAddress': ['Mississauga ON', 'Canada']}",[],v-1603875904,False,
884,4bf723225efe2d7fe9806834,Iron Chef Japanese Steakhouse Asian Cuisine,"{'address': '4920 Tomken Rd', 'crossStreet': 'at Eglinton Ave. E', 'lat': 43.6256606808345, 'lng': -79.63092031082013, 'labeledLatLngs': [{'label': 'display', 'lat': 43.6256606808345, 'lng': -79.63092031082013}], 'postalCode': 'L4Z 4A1', 'cc': 'CA', 'city': 'Mississauga', 'state': 'ON', 'country': 'Canada', 'formattedAddress': ['4920 Tomken Rd (at Eglinton Ave. E)', 'Mississauga ON L4Z 4A1', 'Canada']}","[{'id': '4bf58dd8d48988d111941735', 'name': 'Japanese Restaurant', 'pluralName': 'Japanese Restaurants', 'shortName': 'Japanese', 'icon': {'prefix': 'https://ss3.4sqi.net/img/categories_v2/food/japanese_', 'suffix': '.png'}, 'primary': True}]",v-1603875905,False,
891,4fc6450ae4b064a3159d33f2,Asian And Canadian Grocery,"{'lat': 43.72356666152343, 'lng': -79.71765851920075, 'labeledLatLngs': [{'label': 'display', 'lat': 43.72356666152343, 'lng': -79.71765851920075}], 'cc': 'CA', 'country': 'Canada', 'formattedAddress': ['Canada']}","[{'id': '4bf58dd8d48988d1fa941735', 'name': 'Farmers Market', 'pluralName': 'Farmers Markets', 'shortName': ""Farmer's Market"", 'icon': {'prefix': 'https://ss3.4sqi.net/img/categories_v2/shops/food_farmersmarket_', 'suffix': '.png'}, 'primary': True}]",v-1603875905,False,
893,4bbabc281261d13a7e03eb98,King Asian Restaurant,"{'address': '2500 Hurontario Street', 'crossStreet': 'King Street', 'lat': 43.57796223473656, 'lng': -79.61368284716102, 'labeledLatLngs': [{'label': 'display', 'lat': 43.57796223473656, 'lng': -79.61368284716102}], 'cc': 'CA', 'city': 'Mississauga', 'state': 'ON', 'country': 'Canada', 'formattedAddress': ['2500 Hurontario Street (King Street)', 'Mississauga ON', 'Canada']}","[{'id': '4bf58dd8d48988d142941735', 'name': 'Asian Restaurant', 'pluralName': 'Asian Restaurants', 'shortName': 'Asian', 'icon': {'prefix': 'https://ss3.4sqi.net/img/categories_v2/food/asian_', 'suffix': '.png'}, 'primary': True}]",v-1603875905,False,
897,520686d1498e7bbf455af4c8,Asian Rolls,"{'address': '45 Queen Street East', 'lat': 43.6868083, 'lng': -79.75892929999999, 'labeledLatLngs': [{'label': 'display', 'lat': 43.6868083, 'lng': -79.75892929999999}], 'cc': 'CA', 'city': 'Brampton', 'state': 'ON', 'country': 'Canada', 'formattedAddress': ['45 Queen Street East', 'Brampton ON', 'Canada']}","[{'id': '4bf58dd8d48988d1d2941735', 'name': 'Sushi Restaurant', 'pluralName': 'Sushi Restaurants', 'shortName': 'Sushi', 'icon': {'prefix': 'https://ss3.4sqi.net/img/categories_v2/food/sushi_', 'suffix': '.png'}, 'primary': True}]",v-1603875905,False,
1330,4cd7043bab19a093d32148eb,Central Asian Market,"{'lat': 43.795888, 'lng': -79.432297, 'labeledLatLngs': [{'label': 'display', 'lat': 43.795888, 'lng': -79.432297}], 'cc': 'CA', 'country': 'Canada', 'formattedAddress': ['Canada']}","[{'id': '4bf58dd8d48988d113941735', 'name': 'Korean Restaurant', 'pluralName': 'Korean Restaurants', 'shortName': 'Korean', 'icon': {'prefix': 'https://ss3.4sqi.net/img/categories_v2/food/korean_', 'suffix': '.png'}, 'primary': True}]",v-1603875908,False,
1332,4be72fe8910020a1b025d514,Asian King,"{'address': '800 Steeles Ave. W', 'crossStreet': 'Bathurst street', 'lat': 43.79256412860348, 'lng': -79.44797646523301, 'labeledLatLngs': [{'label': 'display', 'lat': 43.79256412860348, 'lng': -79.44797646523301}], 'postalCode': 'L4J 2N3', 'cc': 'CA', 'city': 'Vaughan', 'state': 'ON', 'country': 'Canada', 'formattedAddress': ['800 Steeles Ave. W (Bathurst street)', 'Vaughan ON L4J 2N3', 'Canada']}","[{'id': '4bf58dd8d48988d145941735', 'name': 'Chinese Restaurant', 'pluralName': 'Chinese Restaurants', 'shortName': 'Chinese', 'icon': {'prefix': 'https://ss3.4sqi.net/img/categories_v2/food/asian_', 'suffix': '.png'}, 'primary': True}]",v-1603875908,False,
1338,51fc2db8498e903256d57909,White Orchid Southeast Asian Cuisine,"{'address': '360 Highway 7 E., Unit 5', 'crossStreet': 'Chalmers Rd', 'lat': 43.841465242496156, 'lng': -79.39710543528906, 'labeledLatLngs': [{'label': 'display', 'lat': 43.841465242496156, 'lng': -79.39710543528906}], 'postalCode': 'L4B 3Y7', 'cc': 'CA', 'city': 'Richmond Hill', 'state': 'ON', 'country': 'Canada', 'formattedAddress': ['360 Highway 7 E., Unit 5 (Chalmers Rd)', 'Richmond Hill ON L4B 3Y7', 'Canada']}","[{'id': '4bf58dd8d48988d156941735', 'name': 'Malay Restaurant', 'pluralName': 'Malay Restaurants', 'shortName': 'Malay', 'icon': {'prefix': 'https://ss3.4sqi.net/img/categories_v2/food/malaysian_', 'suffix': '.png'}, 'primary': True}]",v-1603875908,False,{'id': '82734940'}
1340,4c0090a9df6c0f472fa98b22,Asian House,"{'lat': 43.83502668532628, 'lng': -79.50689692429485, 'labeledLatLngs': [{'label': 'display', 'lat': 43.83502668532628, 'lng': -79.50689692429485}], 'cc': 'CA', 'country': 'Canada', 'formattedAddress': ['Canada']}","[{'id': '4bf58dd8d48988d142941735', 'name': 'Asian Restaurant', 'pluralName': 'Asian Restaurants', 'shortName': 'Asian', 'icon': {'prefix': 'https://ss3.4sqi.net/img/categories_v2/food/asian_', 'suffix': '.png'}, 'primary': True}]",v-1603875908,False,
1678,51e894d2498eba2af92a64a0,Famous asian fast food finch,"{'lat': 43.74830188447153, 'lng': -79.54169747496941, 'labeledLatLngs': [{'label': 'display', 'lat': 43.74830188447153, 'lng': -79.54169747496941}], 'cc': 'CA', 'country': 'Canada', 'formattedAddress': ['Canada']}","[{'id': '4bf58dd8d48988d142941735', 'name': 'Asian Restaurant', 'pluralName': 'Asian Restaurants', 'shortName': 'Asian', 'icon': {'prefix': 'https://ss3.4sqi.net/img/categories_v2/food/asian_', 'suffix': '.png'}, 'primary': True}]",v-1603875909,False,
2394,568abee3498e725a3f726e4a,Thai Chi Asian Kitchen,"{'address': '17-9750 Weston Rd', 'lat': 43.838431, 'lng': -79.559187, 'labeledLatLngs': [{'label': 'display', 'lat': 43.838431, 'lng': -79.559187}], 'postalCode': 'L4H 2Z7', 'cc': 'CA', 'city': 'Woodbridge', 'state': 'ON', 'country': 'Canada', 'formattedAddress': ['17-9750 Weston Rd', 'Woodbridge ON L4H 2Z7', 'Canada']}","[{'id': '4bf58dd8d48988d1c4941735', 'name': 'Restaurant', 'pluralName': 'Restaurants', 'shortName': 'Restaurant', 'icon': {'prefix': 'https://ss3.4sqi.net/img/categories_v2/food/default_', 'suffix': '.png'}, 'primary': True}]",v-1603875913,False,
3796,4fd657c4e4b0cb311ff6c4f7,Can/Asian Food,"{'lat': 43.756936, 'lng': -79.729484, 'labeledLatLngs': [{'label': 'display', 'lat': 43.756936, 'lng': -79.729484}], 'cc': 'CA', 'city': 'Brampton', 'state': 'ON', 'country': 'Canada', 'formattedAddress': ['Brampton ON', 'Canada']}","[{'id': '4eb1bd1c3b7b55596b4a748f', 'name': 'Filipino Restaurant', 'pluralName': 'Filipino Restaurants', 'shortName': 'Filipino', 'icon': {'prefix': 'https://ss3.4sqi.net/img/categories_v2/food/filipino_', 'suffix': '.png'}, 'primary': True}]",v-1603875924,False,
3798,4c96542f533aa093b6cad045,asian food centre,"{'crossStreet': 'william parkway and chingousey', 'lat': 43.697848, 'lng': -79.784243, 'labeledLatLngs': [{'label': 'display', 'lat': 43.697848, 'lng': -79.784243}], 'cc': 'CA', 'city': 'Brampton', 'state': 'ON', 'country': 'Canada', 'formattedAddress': ['Brampton ON', 'Canada']}","[{'id': '4bf58dd8d48988d1ff941735', 'name': 'Miscellaneous Shop', 'pluralName': 'Miscellaneous Shops', 'shortName': 'Shop', 'icon': {'prefix': 'https://ss3.4sqi.net/img/categories_v2/shops/default_', 'suffix': '.png'}, 'primary': True}]",v-1603875924,False,
4093,553fb2d3498e43a4eac025ce,Pho Metro Asian Cuisine,"{'address': '7-50 Bur Oak Ave.', 'lat': 43.88921108901625, 'lng': -79.31561475172222, 'labeledLatLngs': [{'label': 'display', 'lat': 43.88921108901625, 'lng': -79.31561475172222}], 'postalCode': 'L6C 0A2', 'cc': 'CA', 'city': 'Markham', 'state': 'ON', 'country': 'Canada', 'formattedAddress': ['7-50 Bur Oak Ave.', 'Markham ON L6C 0A2', 'Canada']}","[{'id': '4bf58dd8d48988d14a941735', 'name': 'Vietnamese Restaurant', 'pluralName': 'Vietnamese Restaurants', 'shortName': 'Vietnamese', 'icon': {'prefix': 'https://ss3.4sqi.net/img/categories_v2/food/vietnamese_', 'suffix': '.png'}, 'primary': True}]",v-1603875925,False,
