,id,name,location,categories,referralId,hasPerk,venuePage
0,4b06f192f964a520c1f322e3,Japanese Canadian Cultural Centre,"{'address': '6 Garamond Crt', 'crossStreet': 'Don Mills Rd. & Eglinton Ave. E', 'lat': 43.726429, 'lng': -79.334971, 'labeledLatLngs': [{'label': 'display', 'lat': 43.726429, 'lng': -79.334971}], 'postalCode': 'M3C 1Z5', 'cc': 'CA', 'neighborhood': 'Sunnybrook - York Mills', 'city': 'North York', 'state': 'ON', 'country': 'Canada', 'formattedAddress': ['6 Garamond Crt (Don Mills Rd. & Eglinton Ave. E)', 'North York ON M3C 1Z5', 'Canada']}","[{'id': '4bf58dd8d48988d1e2931735', 'name': 'Art Gallery', 'pluralName': 'Art Galleries', 'shortName': 'Art Gallery', 'icon': {'prefix': 'https://ss3.4sqi.net/img/categories_v2/arts_entertainment/artgallery_', 'suffix': '.png'}, 'primary': True}]",v-1603876300,False,
1,4d4d8afe80cb6dcb447a1101,Japanese Express 櫻花日本料理,"{'address': '4300 Steeles Ave. E', 'crossStreet': 'in Pacific Mall, Unit F3', 'lat': 43.82561059140757, 'lng': -79.30609703063965, 'labeledLatLngs': [{'label': 'display', 'lat': 43.82561059140757, 'lng': -79.30609703063965}], 'postalCode': 'L3R 0Y5', 'cc': 'CA', 'city': 'Markham', 'state': 'ON', 'country': 'Canada', 'formattedAddress': ['4300 Steeles Ave. E (in Pacific Mall, Unit F3)', 'Markham ON L3R 0Y5', 'Canada']}","[{'id': '4bf58dd8d48988d111941735', 'name': 'Japanese Restaurant', 'pluralName': 'Japanese Restaurants', 'shortName': 'Japanese', 'icon': {'prefix': 'https://ss3.4sqi.net/img/categories_v2/food/japanese_', 'suffix': '.png'}, 'primary': True}]",v-1603876300,False,
2,5dbc9bbe65635a00087b790e,Chiba Japanese Restaurant,"{'address': '3555 Don Mills Rd', 'lat': 43.79423, 'lng': -79.35371, 'labeledLatLngs': [{'label': 'display', 'lat': 43.79423, 'lng': -79.35371}], 'cc': 'CA', 'state': 'Ontario', 'country': 'Canada', 'formattedAddress': ['3555 Don Mills Rd', 'Ontario', 'Canada']}","[{'id': '4bf58dd8d48988d111941735', 'name': 'Japanese Restaurant', 'pluralName': 'Japanese Restaurants', 'shortName': 'Japanese', 'icon': {'prefix': 'https://ss3.4sqi.net/img/categories_v2/food/japanese_', 'suffix': '.png'}, 'primary': True}]",v-1603876300,False,
3,5968db248ad62e41be98d3cd,The Centre For Japanese Acupuncture,"{'address': '165 York Mills Rd', 'crossStreet': 'York Mills And Yonge', 'lat': 43.746144, 'lng': -79.392684, 'labeledLatLngs': [{'label': 'display', 'lat': 43.746144, 'lng': -79.392684}], 'postalCode': 'M2L 1K6', 'cc': 'CA', 'city': 'Toronto', 'state': 'ON', 'country': 'Canada', 'formattedAddress': ['165 York Mills Rd (York Mills And Yonge)', 'Toronto ON M2L 1K6', 'Canada']}","[{'id': '52e81612bcbc57f1066b7a3b', 'name': 'Acupuncturist', 'pluralName': 'Acupuncturists', 'shortName': 'Acupuncturist', 'icon': {'prefix': 'https://ss3.4sqi.net/img/categories_v2/building/medical_doctorsoffice_', 'suffix': '.png'}, 'primary': True}]",v-1603876300,False,
4,53bafb4f498eb927faa3cd9e,Matsuda Japanese Cuisine & Teppanyaki,"{'address': '1300 Don Mills Rd #2', 'lat': 43.74549366550305, 'lng': -79.34582141079446, 'labeledLatLngs': [{'label': 'display', 'lat': 43.74549366550305, 'lng': -79.34582141079446}], 'postalCode': 'M3B 2W6', 'cc': 'CA', 'city': 'North York', 'state': 'ON', 'country': 'Canada', 'formattedAddress': ['1300 Don Mills Rd #2', 'North York ON M3B 2W6', 'Canada']}","[{'id': '4bf58dd8d48988d111941735', 'name': 'Japanese Restaurant', 'pluralName': 'Japanese Restaurants', 'shortName': 'Japanese', 'icon': {'prefix': 'https://ss3.4sqi.net/img/categories_v2/food/japanese_', 'suffix': '.png'}, 'primary': True}]",v-1603876300,False,
5,5e039736fcbf910007ec40b4,一鮨 Ichi Don Japanese Restaurant,"{'address': '3636 Steeles Avenue East', 'lat': 43.819478, 'lng': -79.330682, 'labeledLatLngs': [{'label': 'display', 'lat': 43.819478, 'lng': -79.330682}], 'postalCode': 'L3R', 'cc': 'CA', 'city': 'Markham', 'state': 'ON', 'country': 'Canada', 'formattedAddress': ['3636 Steeles Avenue East', 'Markham ON L3R', 'Canada']}","[{'id': '4bf58dd8d48988d111941735', 'name': 'Japanese Restaurant', 'pluralName': 'Japanese Restaurants', 'shortName': 'Japanese', 'icon': {'prefix': 'https://ss3.4sqi.net/img/categories_v2/food/japanese_', 'suffix': '.png'}, 'primary': True}]",v-1603876300,False,
6,4cbce47cdd41a35d8040f6a0,Matsuda Japanese Cuisine 松田日本料理,"{'address': '5651 Steeles Ave. E', 'crossStreet': 'at Middlefield Rd.', 'lat': 43.83183193799915, 'lng': -79.26630367672558, 'labeledLatLngs': [{'label': 'display', 'lat': 43.83183193799915, 'lng': -79.26630367672558}], 'postalCode': 'M1V 5P6', 'cc': 'CA', 'city': 'Scarborough', 'state': 'ON', 'country': 'Canada', 'formattedAddress': ['5651 Steeles Ave. E (at Middlefield Rd.)', 'Scarborough ON M1V 5P6', 'Canada']}","[{'id': '4bf58dd8d48988d111941735', 'name': 'Japanese Restaurant', 'pluralName': 'Japanese Restaurants', 'shortName': 'Japanese', 'icon': {'prefix': 'https://ss3.4sqi.net/img/categories_v2/food/japanese_', 'suffix': '.png'}, 'primary': True}]",v-1603876300,False,
7,4d2f8a98789a8cfa6b0826c6,In Cheon House Korean & Japanese Restaurant 인천관,"{'address': '9 Glen Watford Dr.', 'crossStreet': 'at Sheppard Ave. E', 'lat': 43.78646767038441, 'lng': -79.27569314969834, 'labeledLatLngs': [{'label': 'display', 'lat': 43.78646767038441, 'lng': -79.27569314969834}], 'postalCode': 'M1S 2B9', 'cc': 'CA', 'city': 'Scarborough', 'state': 'ON', 'country': 'Canada', 'formattedAddress': ['9 Glen Watford Dr. (at Sheppard Ave. E)', 'Scarborough ON M1S 2B9', 'Canada']}","[{'id': '4bf58dd8d48988d113941735', 'name': 'Korean Restaurant', 'pluralName': 'Korean Restaurants', 'shortName': 'Korean', 'icon': {'prefix': 'https://ss3.4sqi.net/img/categories_v2/food/korean_', 'suffix': '.png'}, 'primary': True}]",v-1603876300,False,
8,4e0216dfb61c90045007088c,Gill - Fine Japanese Fusion Cuisine,"{'address': '1560 Yonge St. #201', 'crossStreet': 'Yonge & Heath', 'lat': 43.68973742286628, 'lng': -79.39499616622925, 'labeledLatLngs': [{'label': 'display', 'lat': 43.68973742286628, 'lng': -79.39499616622925}], 'postalCode': 'M4T 2S9', 'cc': 'CA', 'city': 'Toronto', 'state': 'ON', 'country': 'Canada', 'formattedAddress': ['1560 Yonge St. #201 (Yonge & Heath)', 'Toronto ON M4T 2S9', 'Canada']}","[{'id': '4bf58dd8d48988d111941735', 'name': 'Japanese Restaurant', 'pluralName': 'Japanese Restaurants', 'shortName': 'Japanese', 'icon': {'prefix': 'https://ss3.4sqi.net/img/categories_v2/food/japanese_', 'suffix': '.png'}, 'primary': True}]",v-1603876300,False,
9,4ad4c061f964a52092f720e3,Katsura Japanese Restaurant 桂,"{'address': '900 York Mills Rd.', 'crossStreet': 'at Westin Prince Hotel', 'lat': 43.75625865963421, 'lng': -79.34957097779701, 'labeledLatLngs': [{'label': 'display', 'lat': 43.75625865963421, 'lng': -79.34957097779701}], 'postalCode': 'M3B 3H2', 'cc': 'CA', 'city': 'Toronto', 'state': 'ON', 'country': 'Canada', 'formattedAddress': ['900 York Mills Rd. (at Westin Prince Hotel)', 'Toronto ON M3B 3H2', 'Canada']}","[{'id': '4bf58dd8d48988d111941735', 'name': 'Japanese Restaurant', 'pluralName': 'Japanese Restaurants', 'shortName': 'Japanese', 'icon': {'prefix': 'https://ss3.4sqi.net/img/categories_v2/food/japanese_', 'suffix': '.png'}, 'primary': True}]",v-1603876300,False,
10,4af9f163f964a520721522e3,Sakura Korean & Japanese Restaurant,"{'address': '7010 Warden Ave', 'crossStreet': 'at Steeles Ave', 'lat': 43.820382740094196, 'lng': -79.32568980265346, 'labeledLatLngs': [{'label': 'display', 'lat': 43.820382740094196, 'lng': -79.32568980265346}], 'postalCode': 'L3R 5Y3', 'cc': 'CA', 'city': 'Markham', 'state': 'ON', 'country': 'Canada', 'formattedAddress': ['7010 Warden Ave (at Steeles Ave)', 'Markham ON L3R 5Y3', 'Canada']}","[{'id': '4bf58dd8d48988d113941735', 'name': 'Korean Restaurant', 'pluralName': 'Korean Restaurants', 'shortName': 'Korean', 'icon': {'prefix': 'https://ss3.4sqi.net/img/categories_v2/food/korean_', 'suffix': '.png'}, 'primary': True}]",v-1603876300,False,
11,53094ab6498ec7b76dbfb46c,Yokohama Japanese Cuisine,"{'address': '7050 Warden Ave.', 'lat': 43.82123992030356, 'lng': -79.32548158289822, 'labeledLatLngs': [{'label': 'display', 'lat': 43.82123992030356, 'lng': -79.32548158289822}], 'cc': 'CA', 'city': 'Markham', 'state': 'ON', 'country': 'Canada', 'formattedAddress': ['7050 Warden Ave.', 'Markham ON', 'Canada']}","[{'id': '4bf58dd8d48988d111941735', 'name': 'Japanese Restaurant', 'pluralName': 'Japanese Restaurants', 'shortName': 'Japanese', 'icon': {'prefix': 'https://ss3.4sqi.net/img/categories_v2/food/japanese_', 'suffix': '.png'}, 'primary': True}]",v-1603876300,False,
12,4c48e1e36594be9af3245324,Bikkuri Japanese Restaurant,"{'address': '1835 Yonge St. #101', 'crossStreet': 'at Balliol St', 'lat': 43.69664436996195, 'lng': -79.39635256109655, 'labeledLatLngs': [{'label': 'display', 'lat': 43.69664436996195, 'lng': -79.39635256109655}], 'postalCode': 'M4S 1X8', 'cc': 'CA', 'city': 'Toronto', 'state': 'ON', 'country': 'Canada', 'formattedAddress': ['1835 Yonge St. #101 (at Balliol St)', 'Toronto ON M4S 1X8', 'Canada']}","[{'id': '4bf58dd8d48988d111941735', 'name': 'Japanese Restaurant', 'pluralName': 'Japanese Restaurants', 'shortName': 'Japanese', 'icon': {'prefix': 'https://ss3.4sqi.net/img/categories_v2/food/japanese_', 'suffix': '.png'}, 'primary': True}]",v-1603876300,False,
13,4b69b8ddf964a52000b02be3,Suki Japanese Cuisine,"{'address': '48 St. Clair Ave. E', 'crossStreet': 'at Ferndale Ave.', 'lat': 43.68866817066987, 'lng': -79.3918540007956, 'labeledLatLngs': [{'label': 'display', 'lat': 43.68866817066987, 'lng': -79.3918540007956}], 'cc': 'CA', 'city': 'Toronto', 'state': 'ON', 'country': 'Canada', 'formattedAddress': ['48 St. Clair Ave. E (at Ferndale Ave.)', 'Toronto ON', 'Canada']}","[{'id': '4bf58dd8d48988d111941735', 'name': 'Japanese Restaurant', 'pluralName': 'Japanese Restaurants', 'shortName': 'Japanese', 'icon': {'prefix': 'https://ss3.4sqi.net/img/categories_v2/food/japanese_', 'suffix': '.png'}, 'primary': True}]",v-1603876300,False,
14,5675a8ca498eed25e33986c9,Japanese Ramen King,"{'address': '3278 Midland Avenue', 'lat': 43.804684, 'lng': -79.288414, 'labeledLatLngs': [{'label': 'display', 'lat': 43.804684, 'lng': -79.288414}], 'cc': 'CA', 'city': 'Toronto', 'state': 'ON', 'country': 'Canada', 'formattedAddress': ['3278 Midland Avenue', 'Toronto ON', 'Canada']}","[{'id': '55a59bace4b013909087cb24', 'name': 'Ramen Restaurant', 'pluralName': 'Ramen Restaurants', 'shortName': 'Ramen', 'icon': {'prefix': 'https://ss3.4sqi.net/img/categories_v2/food/ramen_', 'suffix': '.png'}, 'primary': True}]",v-1603876300,False,
15,5f273512b230f759ae802385,Taiga Japanese Restaurant,"{'lat': 43.862468, 'lng': -79.48556, 'labeledLatLngs': [{'label': 'display', 'lat': 43.862468, 'lng': -79.48556}], 'postalCode': 'L6A 4H6', 'cc': 'CA', 'city': 'Vaughan', 'state': 'ON', 'country': 'Canada', 'formattedAddress': ['Vaughan ON L6A 4H6', 'Canada']}","[{'id': '4bf58dd8d48988d111941735', 'name': 'Japanese Restaurant', 'pluralName': 'Japanese Restaurants', 'shortName': 'Japanese', 'icon': {'prefix': 'https://ss3.4sqi.net/img/categories_v2/food/japanese_', 'suffix': '.png'}, 'primary': True}]",v-1603876300,False,
16,4f777209e4b0df5436c04da7,Kenzo Japanese Ramen House,"{'address': '4860 Yonge St.', 'crossStreet': 'at Sheppard Ave.', 'lat': 43.762850505733084, 'lng': -79.41142619935471, 'labeledLatLngs': [{'label': 'display', 'lat': 43.762850505733084, 'lng': -79.41142619935471}], 'postalCode': 'M2N 5N2', 'cc': 'CA', 'city': 'Toronto', 'state': 'ON', 'country': 'Canada', 'formattedAddress': ['4860 Yonge St. (at Sheppard Ave.)', 'Toronto ON M2N 5N2', 'Canada']}","[{'id': '55a59bace4b013909087cb24', 'name': 'Ramen Restaurant', 'pluralName': 'Ramen Restaurants', 'shortName': 'Ramen', 'icon': {'prefix': 'https://ss3.4sqi.net/img/categories_v2/food/ramen_', 'suffix': '.png'}, 'primary': True}]",v-1603876300,False,
17,4b78331ef964a520b9bb2ee3,Samjung Japanese Restaurant,"{'address': '1865 Leslie St', 'crossStreet': 'at Coldwater Rd', 'lat': 43.75525099504457, 'lng': -79.36032313234564, 'labeledLatLngs': [{'label': 'display', 'lat': 43.75525099504457, 'lng': -79.36032313234564}], 'postalCode': 'M3B 2M3', 'cc': 'CA', 'city': 'Toronto', 'state': 'ON', 'country': 'Canada', 'formattedAddress': ['1865 Leslie St (at Coldwater Rd)', 'Toronto ON M3B 2M3', 'Canada']}","[{'id': '4bf58dd8d48988d111941735', 'name': 'Japanese Restaurant', 'pluralName': 'Japanese Restaurants', 'shortName': 'Japanese', 'icon': {'prefix': 'https://ss3.4sqi.net/img/categories_v2/food/japanese_', 'suffix': '.png'}, 'primary': True}]",v-1603876300,False,
18,4bd39b6b046076b0a58f7671,Japanese Gospel Church of Toronto,"{'address': '301 Silver Star Blvd', 'crossStreet': 'at McNicoll Ave', 'lat': 43.812481553187475, 'lng': -79.29446697235107, 'labeledLatLngs': [{'label': 'display', 'lat': 43.812481553187475, 'lng': -79.29446697235107}], 'postalCode': 'M1V 0B6', 'cc': 'CA', 'city': 'Toronto', 'state': 'ON', 'country': 'Canada', 'formattedAddress': ['301 Silver Star Blvd (at McNicoll Ave)', 'Toronto ON M1V 0B6', 'Canada']}","[{'id': '4bf58dd8d48988d132941735', 'name': 'Church', 'pluralName': 'Churches', 'shortName': 'Church', 'icon': {'prefix': 'https://ss3.4sqi.net/img/categories_v2/building/religious_church_', 'suffix': '.png'}, 'primary': True}]",v-1603876300,False,
19,4bcf4569046076b0e8fa6d71,Nagoya Japanese Restaurant 名古屋日本料理,"{'address': '7750 Kennedy Rd', 'crossStreet': 'at 14th Ave', 'lat': 43.84292294524965, 'lng': -79.30554924283916, 'labeledLatLngs': [{'label': 'display', 'lat': 43.84292294524965, 'lng': -79.30554924283916}], 'postalCode': 'L3R 0V5', 'cc': 'CA', 'city': 'Markham', 'state': 'ON', 'country': 'Canada', 'formattedAddress': ['7750 Kennedy Rd (at 14th Ave)', 'Markham ON L3R 0V5', 'Canada']}","[{'id': '4bf58dd8d48988d1d2941735', 'name': 'Sushi Restaurant', 'pluralName': 'Sushi Restaurants', 'shortName': 'Sushi', 'icon': {'prefix': 'https://ss3.4sqi.net/img/categories_v2/food/sushi_', 'suffix': '.png'}, 'primary': True}]",v-1603876300,False,
20,4ae73054f964a5203ca921e3,Ki Modern Japanese + Bar,"{'address': '181 Bay St', 'crossStreet': 'at Wellington St. W', 'lat': 43.647223, 'lng': -79.3793738, 'labeledLatLngs': [{'label': 'display', 'lat': 43.647223, 'lng': -79.3793738}], 'postalCode': 'M5J 2T3', 'cc': 'CA', 'city': 'Toronto', 'state': 'ON', 'country': 'Canada', 'formattedAddress': ['181 Bay St (at Wellington St. W)', 'Toronto ON M5J 2T3', 'Canada']}","[{'id': '4bf58dd8d48988d111941735', 'name': 'Japanese Restaurant', 'pluralName': 'Japanese Restaurants', 'shortName': 'Japanese', 'icon': {'prefix': 'https://ss3.4sqi.net/img/categories_v2/food/japanese_', 'suffix': '.png'}, 'primary': True}]",v-1603876300,False,
21,5079be36e4b0258079c0bf13,Oriole-York Mills Japanese United Church,"{'crossStreet': 'Bayview and Heathcote', 'lat': 43.75362, 'lng': -79.38776, 'labeledLatLngs': [{'label': 'display', 'lat': 43.75362, 'lng': -79.38776}], 'cc': 'CA', 'city': 'Toronto', 'state': 'ON', 'country': 'Canada', 'formattedAddress': ['Bayview and Heathcote', 'Toronto ON', 'Canada']}","[{'id': '4bf58dd8d48988d132941735', 'name': 'Church', 'pluralName': 'Churches', 'shortName': 'Church', 'icon': {'prefix': 'https://ss3.4sqi.net/img/categories_v2/building/religious_church_', 'suffix': '.png'}, 'primary': True}]",v-1603876300,False,
22,570f98ef498ee697685f6fac,Total Japanese Domestic Motor,"{'address': '55 Midwest Road', 'crossStreet': 'Lawrence And Midland', 'lat': 43.75366914450886, 'lng': -79.26668415470886, 'labeledLatLngs': [{'label': 'display', 'lat': 43.75366914450886, 'lng': -79.26668415470886}], 'cc': 'CA', 'city': 'Scarborough', 'state': 'ON', 'country': 'Canada', 'formattedAddress': ['55 Midwest Road (Lawrence And Midland)', 'Scarborough ON', 'Canada']}","[{'id': '4bf58dd8d48988d124951735', 'name': 'Automotive Shop', 'pluralName': 'Automotive Shops', 'shortName': 'Automotive', 'icon': {'prefix': 'https://ss3.4sqi.net/img/categories_v2/shops/automotive_', 'suffix': '.png'}, 'primary': True}]",v-1603876300,False,
23,591f89f1f5e9d739e0052e04,Roll N Bowl Korean & Japanese Cuisine,"{'address': '1157 Ellesmere Road', 'crossStreet': 'Midland and Ellesmere', 'lat': 43.764656, 'lng': -79.27101, 'labeledLatLngs': [{'label': 'display', 'lat': 43.764656, 'lng': -79.27101}], 'postalCode': 'M1P 5A1', 'cc': 'CA', 'city': 'Scarborough', 'state': 'ON', 'country': 'Canada', 'formattedAddress': ['1157 Ellesmere Road (Midland and Ellesmere)', 'Scarborough ON M1P 5A1', 'Canada']}","[{'id': '4bf58dd8d48988d142941735', 'name': 'Asian Restaurant', 'pluralName': 'Asian Restaurants', 'shortName': 'Asian', 'icon': {'prefix': 'https://ss3.4sqi.net/img/categories_v2/food/asian_', 'suffix': '.png'}, 'primary': True}]",v-1603876300,False,
24,5ce4a2269e0d54002cbde445,Gyubee Japanese Grill,"{'address': '109-3720 Midland Ave', 'lat': 43.815586, 'lng': -79.293106, 'labeledLatLngs': [{'label': 'display', 'lat': 43.815586, 'lng': -79.293106}], 'cc': 'CA', 'city': 'Scarborough', 'state': 'ON', 'country': 'Canada', 'formattedAddress': ['109-3720 Midland Ave', 'Scarborough ON', 'Canada']}","[{'id': '4bf58dd8d48988d111941735', 'name': 'Japanese Restaurant', 'pluralName': 'Japanese Restaurants', 'shortName': 'Japanese', 'icon': {'prefix': 'https://ss3.4sqi.net/img/categories_v2/food/japanese_', 'suffix': '.png'}, 'primary': True}]",v-1603876300,False,
25,4af63562f964a5203d0222e3,Bikkuri Japanese,"{'address': '36 King St. E', 'crossStreet': 'at Victoria', 'lat': 43.649564308142, 'lng': -79.37632789169632, 'labeledLatLngs': [{'label': 'display', 'lat': 43.649564308142, 'lng': -79.37632789169632}], 'cc': 'CA', 'city': 'Toronto', 'state': 'ON', 'country': 'Canada', 'formattedAddress': ['36 King St. E (at Victoria)', 'Toronto ON', 'Canada']}","[{'id': '4bf58dd8d48988d1d2941735', 'name': 'Sushi Restaurant', 'pluralName': 'Sushi Restaurants', 'shortName': 'Sushi', 'icon': {'prefix': 'https://ss3.4sqi.net/img/categories_v2/food/sushi_', 'suffix': '.png'}, 'primary': True}]",v-1603876300,False,
26,4bae8846f964a52096bd3be3,Michi Japanese Restaurant & Sushi Bar,"{'address': '4848 Yonge St', 'lat': 43.76109, 'lng': -79.39968000020751, 'labeledLatLngs': [{'label': 'display', 'lat': 43.76109, 'lng': -79.39968000020751}], 'cc': 'CA', 'city': 'Toronto', 'state': 'ON', 'country': 'Canada', 'formattedAddress': ['4848 Yonge St', 'Toronto ON', 'Canada']}","[{'id': '4bf58dd8d48988d1d2941735', 'name': 'Sushi Restaurant', 'pluralName': 'Sushi Restaurants', 'shortName': 'Sushi', 'icon': {'prefix': 'https://ss3.4sqi.net/img/categories_v2/food/sushi_', 'suffix': '.png'}, 'primary': True}]",v-1603876300,False,
27,56919a8b498ed05fb7e55ca4,Nakamori Japanese Restaurant,"{'address': '2803 Eglinton Ave E', 'lat': 43.737003, 'lng': -79.24475, 'labeledLatLngs': [{'label': 'display', 'lat': 43.737003, 'lng': -79.24475}], 'postalCode': 'M1J 2E1', 'cc': 'CA', 'city': 'Scarborough', 'state': 'ON', 'country': 'Canada', 'formattedAddress': ['2803 Eglinton Ave E', 'Scarborough ON M1J 2E1', 'Canada']}","[{'id': '4bf58dd8d48988d111941735', 'name': 'Japanese Restaurant', 'pluralName': 'Japanese Restaurants', 'shortName': 'Japanese', 'icon': {'prefix': 'https://ss3.4sqi.net/img/categories_v2/food/japanese_', 'suffix': '.png'}, 'primary': True}]",v-1603876300,False,
28,5bedd59e3ba767002c95c7de,Fuwa Fuwa Japanese Pancakes,"{'address': '2471 Yonge Street', 'lat': 43.711428532259085, 'lng': -79.39914554357529, 'labeledLatLngs': [{'label': 'display', 'lat': 43.711428532259085, 'lng': -79.39914554357529}], 'postalCode': 'M4P 2H6', 'cc': 'CA', 'city': 'Toronto', 'state': 'ON', 'country': 'Canada', 'formattedAddress': ['2471 Yonge Street', 'Toronto ON M4P 2H6', 'Canada']}","[{'id': '4bf58dd8d48988d1d0941735', 'name': 'Dessert Shop', 'pluralName': 'Dessert Shops', 'shortName': 'Desserts', 'icon': {'prefix': 'https://ss3.4sqi.net/img/categories_v2/food/dessert_', 'suffix': '.png'}, 'primary': True}]",v-1603876300,False,
29,4bfbf53d565f76b0532706db,Yoko Japanese Korean Restaurant,"{'address': '490 McNicoll Ave.', 'lat': 43.8049821, 'lng': -79.354616, 'labeledLatLngs': [{'label': 'display', 'lat': 43.8049821, 'lng': -79.354616}], 'cc': 'CA', 'city': 'Willowdale', 'state': 'ON', 'country': 'Canada', 'formattedAddress': ['490 McNicoll Ave.', 'Willowdale ON', 'Canada']}","[{'id': '4bf58dd8d48988d111941735', 'name': 'Japanese Restaurant', 'pluralName': 'Japanese Restaurants', 'shortName': 'Japanese', 'icon': {'prefix': 'https://ss3.4sqi.net/img/categories_v2/food/japanese_', 'suffix': '.png'}, 'primary': True}]",v-1603876300,False,
30,4babf004f964a52025d73ae3,Sagano Japanese Restaurant,"{'address': '2035 Kennedy Rd', 'crossStreet': 'at Village Green Sq', 'lat': 43.77664499933209, 'lng': -79.28267609571084, 'labeledLatLngs': [{'label': 'display', 'lat': 43.77664499933209, 'lng': -79.28267609571084}], 'postalCode': 'M1T 3G2', 'cc': 'CA', 'city': 'Toronto', 'state': 'ON', 'country': 'Canada', 'formattedAddress': ['2035 Kennedy Rd (at Village Green Sq)', 'Toronto ON M1T 3G2', 'Canada']}","[{'id': '4bf58dd8d48988d111941735', 'name': 'Japanese Restaurant', 'pluralName': 'Japanese Restaurants', 'shortName': 'Japanese', 'icon': {'prefix': 'https://ss3.4sqi.net/img/categories_v2/food/japanese_', 'suffix': '.png'}, 'primary': True}]",v-1603876300,False,
31,4b90762cf964a5208c8b33e3,Kabuki Japanese Restaurant,"{'address': '2901 Bayview Ave, Unit 102B', 'crossStreet': 'Sheppard', 'lat': 43.76836482973082, 'lng': -79.38631883156744, 'labeledLatLngs': [{'label': 'display', 'lat': 43.76836482973082, 'lng': -79.38631883156744}], 'postalCode': 'M2K 1E6', 'cc': 'CA', 'city': 'North York', 'state': 'ON', 'country': 'Canada', 'formattedAddress': ['2901 Bayview Ave, Unit 102B (Sheppard)', 'North York ON M2K 1E6', 'Canada']}","[{'id': '4bf58dd8d48988d111941735', 'name': 'Japanese Restaurant', 'pluralName': 'Japanese Restaurants', 'shortName': 'Japanese', 'icon': {'prefix': 'https://ss3.4sqi.net/img/categories_v2/food/japanese_', 'suffix': '.png'}, 'primary': True}]",v-1603876300,False,
32,4ce8756ebaa6a1cd063d2e6c,Kenzo Japanese Noodle House,"{'address': '372 Bloor St. W.', 'crossStreet': 'Walmer Rd.', 'lat': 43.666295458907825, 'lng': -79.40600216294874, 'labeledLatLngs': [{'label': 'display', 'lat': 43.666295458907825, 'lng': -79.40600216294874}], 'postalCode': 'M5S 1X7', 'cc': 'CA', 'city': 'Toronto', 'state': 'ON', 'country': 'Canada', 'formattedAddress': ['372 Bloor St. W. (Walmer Rd.)', 'Toronto ON M5S 1X7', 'Canada']}","[{'id': '55a59bace4b013909087cb24', 'name': 'Ramen Restaurant', 'pluralName': 'Ramen Restaurants', 'shortName': 'Ramen', 'icon': {'prefix': 'https://ss3.4sqi.net/img/categories_v2/food/ramen_', 'suffix': '.png'}, 'primary': True}]",v-1603876300,False,
33,530feb6b498e4958420dc8de,Kintako Japanese Restaurant,"{'address': '214 Laird drive', 'crossStreet': 'Eglinton east', 'lat': 43.71159659251094, 'lng': -79.36396207124376, 'labeledLatLngs': [{'label': 'display', 'lat': 43.71159659251094, 'lng': -79.36396207124376}], 'postalCode': 'M4G 3W4', 'cc': 'CA', 'city': 'Toronto', 'state': 'ON', 'country': 'Canada', 'formattedAddress': ['214 Laird drive (Eglinton east)', 'Toronto ON M4G 3W4', 'Canada']}","[{'id': '4bf58dd8d48988d1d2941735', 'name': 'Sushi Restaurant', 'pluralName': 'Sushi Restaurants', 'shortName': 'Sushi', 'icon': {'prefix': 'https://ss3.4sqi.net/img/categories_v2/food/sushi_', 'suffix': '.png'}, 'primary': True}]",v-1603876300,False,{'id': '85149334'}
34,4be591e4cf200f47f55a133c,JT Mix Japanese & Thai,"{'address': '3636 Steeles Ave E', 'crossStreet': 'at Ferrier St', 'lat': 43.81886064459711, 'lng': -79.33062314987183, 'labeledLatLngs': [{'label': 'display', 'lat': 43.81886064459711, 'lng': -79.33062314987183}], 'postalCode': 'L3R 2Z5', 'cc': 'CA', 'city': 'Markham', 'state': 'ON', 'country': 'Canada', 'formattedAddress': ['3636 Steeles Ave E (at Ferrier St)', 'Markham ON L3R 2Z5', 'Canada']}","[{'id': '4bf58dd8d48988d111941735', 'name': 'Japanese Restaurant', 'pluralName': 'Japanese Restaurants', 'shortName': 'Japanese', 'icon': {'prefix': 'https://ss3.4sqi.net/img/categories_v2/food/japanese_', 'suffix': '.png'}, 'primary': True}]",v-1603876300,False,
35,5bd641f1f96b2c002cc4894b,Kaikaki Japanese Cuisine,"{'address': '3307 Bayview Ave', 'crossStreet': 'Cummer Ave', 'lat': 43.791736, 'lng': -79.392444, 'labeledLatLngs': [{'label': 'display', 'lat': 43.791736, 'lng': -79.392444}], 'postalCode': 'M2K 1G4', 'cc': 'CA', 'city': 'Toronto', 'state': 'ON', 'country': 'Canada', 'formattedAddress': ['3307 Bayview Ave (Cummer Ave)', 'Toronto ON M2K 1G4', 'Canada']}","[{'id': '4bf58dd8d48988d1d2941735', 'name': 'Sushi Restaurant', 'pluralName': 'Sushi Restaurants', 'shortName': 'Sushi', 'icon': {'prefix': 'https://ss3.4sqi.net/img/categories_v2/food/sushi_', 'suffix': '.png'}, 'primary': True}]",v-1603876300,False,
36,5e3476eddf93510007731cf8,Shinta Japanese BBQ,"{'address': '5095 Yonge Street. Unit B1', 'lat': 43.7686998255324, 'lng': -79.41212475299835, 'labeledLatLngs': [{'label': 'display', 'lat': 43.7686998255324, 'lng': -79.41212475299835}], 'postalCode': 'M2N 6Z4', 'cc': 'CA', 'city': 'Toronto', 'state': 'ON', 'country': 'Canada', 'formattedAddress': ['5095 Yonge Street. Unit B1', 'Toronto ON M2N 6Z4', 'Canada']}","[{'id': '4bf58dd8d48988d1df931735', 'name': 'BBQ Joint', 'pluralName': 'BBQ Joints', 'shortName': 'BBQ', 'icon': {'prefix': 'https://ss3.4sqi.net/img/categories_v2/food/bbqalt_', 'suffix': '.png'}, 'primary': True}]",v-1603876300,False,
37,50ce0f9ee4b0cc5bc7050261,稫田 Inada Japanese Restaurant,"{'lat': 43.805091, 'lng': -79.287424, 'labeledLatLngs': [{'label': 'display', 'lat': 43.805091, 'lng': -79.287424}], 'cc': 'CA', 'country': 'Canada', 'formattedAddress': ['Canada']}","[{'id': '4bf58dd8d48988d111941735', 'name': 'Japanese Restaurant', 'pluralName': 'Japanese Restaurants', 'shortName': 'Japanese', 'icon': {'prefix': 'https://ss3.4sqi.net/img/categories_v2/food/japanese_', 'suffix': '.png'}, 'primary': True}]",v-1603876300,False,
38,5db39436e555080008126b57,Ichi Don Japanese Cuisine,"{'address': 'Unit 110-111\n3636 Steeles Ave', 'crossStreet': 'warden', 'lat': 43.81863, 'lng': -79.33297, 'labeledLatLngs': [{'label': 'display', 'lat': 43.81863, 'lng': -79.33297}], 'postalCode': 'L6C 2E9', 'cc': 'CA', 'city': 'Markham', 'state': 'ON', 'country': 'Canada', 'formattedAddress': ['Unit 110-111', '3636 Steeles Ave (warden)', 'Markham ON L6C 2E9', 'Canada']}","[{'id': '4bf58dd8d48988d111941735', 'name': 'Japanese Restaurant', 'pluralName': 'Japanese Restaurants', 'shortName': 'Japanese', 'icon': {'prefix': 'https://ss3.4sqi.net/img/categories_v2/food/japanese_', 'suffix': '.png'}, 'primary': True}]",v-1603876300,False,
39,4fa3a26be4b0dd0f113b4e79,Yakudo: Traditional Japanese Drummers,"{'address': '3160 Steeles Ave E, Markham, ON L3R 8T3', 'lat': 43.81699879328655, 'lng': -79.33607934694446, 'labeledLatLngs': [{'label': 'display', 'lat': 43.81699879328655, 'lng': -79.33607934694446}], 'postalCode': 'L3R 8T3', 'cc': 'CA', 'city': 'Markham', 'state': 'ON', 'country': 'Canada', 'formattedAddress': ['3160 Steeles Ave E, Markham, ON L3R 8T3', 'Markham ON L3R 8T3', 'Canada']}","[{'id': '4f04b10d2fb6e1c99f3db0be', 'name': 'Music School', 'pluralName': 'Music Schools', 'shortName': 'Music School', 'icon': {'prefix': 'https://ss3.4sqi.net/img/categories_v2/building/school_music_', 'suffix': '.png'}, 'primary': True}]",v-1603876300,False,
40,53bf3d40498ed6b3a84b0b89,Yamamoto Japanese Cuisine 山本盛世,"{'address': '2900 Warden Ave, Unit 116A', 'crossStreet': 'at Finch Ave. E.', 'lat': 43.79858925165167, 'lng': -79.31855825035903, 'labeledLatLngs': [{'label': 'display', 'lat': 43.79858925165167, 'lng': -79.31855825035903}], 'cc': 'CA', 'city': 'Toronto', 'state': 'ON', 'country': 'Canada', 'formattedAddress': ['2900 Warden Ave, Unit 116A (at Finch Ave. E.)', 'Toronto ON', 'Canada']}","[{'id': '4bf58dd8d48988d111941735', 'name': 'Japanese Restaurant', 'pluralName': 'Japanese Restaurants', 'shortName': 'Japanese', 'icon': {'prefix': 'https://ss3.4sqi.net/img/categories_v2/food/japanese_', 'suffix': '.png'}, 'primary': True}]",v-1603876300,False,
41,4ca609b0f47ea14346845c21,Ho Su Korean & Japanese Restaurant,"{'lat': 43.71000214374543, 'lng': -79.39385634325662, 'labeledLatLngs': [{'label': 'display', 'lat': 43.71000214374543, 'lng': -79.39385634325662}], 'cc': 'CA', 'country': 'Canada', 'formattedAddress': ['Canada']}","[{'id': '4bf58dd8d48988d142941735', 'name': 'Asian Restaurant', 'pluralName': 'Asian Restaurants', 'shortName': 'Asian', 'icon': {'prefix': 'https://ss3.4sqi.net/img/categories_v2/food/asian_', 'suffix': '.png'}, 'primary': True}]",v-1603876300,False,
42,5ca7e70d829b0c002c304de8,99 Sushi Japanese and Thai,"{'lat': 43.707908, 'lng': -79.393009, 'labeledLatLngs': [{'label': 'display', 'lat': 43.707908, 'lng': -79.393009}], 'postalCode': 'M4P 1A6', 'cc': 'CA', 'city': 'Toronto', 'state': 'ON', 'country': 'Canada', 'formattedAddress': ['Toronto ON M4P 1A6', 'Canada']}","[{'id': '4bf58dd8d48988d111941735', 'name': 'Japanese Restaurant', 'pluralName': 'Japanese Restaurants', 'shortName': 'Japanese', 'icon': {'prefix': 'https://ss3.4sqi.net/img/categories_v2/food/japanese_', 'suffix': '.png'}, 'primary': True}]",v-1603876300,False,
43,5cfdca51286fda002cd11fc9,Gyuhito Japanese Bbq Restaurant,"{'address': '633 Silver Star Blvd', 'lat': 43.82205, 'lng': -79.2985, 'labeledLatLngs': [{'label': 'display', 'lat': 43.82205, 'lng': -79.2985}], 'postalCode': 'M1V 5N1', 'cc': 'CA', 'city': 'Toronto', 'state': 'ON', 'country': 'Canada', 'formattedAddress': ['633 Silver Star Blvd', 'Toronto ON M1V 5N1', 'Canada']}","[{'id': '4bf58dd8d48988d1df931735', 'name': 'BBQ Joint', 'pluralName': 'BBQ Joints', 'shortName': 'BBQ', 'icon': {'prefix': 'https://ss3.4sqi.net/img/categories_v2/food/bbqalt_', 'suffix': '.png'}, 'primary': True}]",v-1603876300,False,
44,53e7f27c498e6a14dc56f611,Hamaru Japanese Restaurant,"{'address': '5469 Yonge Street', 'crossStreet': 'Yonge and Finch', 'lat': 43.777804246496494, 'lng': -79.41487171486045, 'labeledLatLngs': [{'label': 'display', 'lat': 43.777804246496494, 'lng': -79.41487171486045}], 'cc': 'CA', 'city': 'Toronto', 'state': 'ON', 'country': 'Canada', 'formattedAddress': ['5469 Yonge Street (Yonge and Finch)', 'Toronto ON', 'Canada']}","[{'id': '4bf58dd8d48988d111941735', 'name': 'Japanese Restaurant', 'pluralName': 'Japanese Restaurants', 'shortName': 'Japanese', 'icon': {'prefix': 'https://ss3.4sqi.net/img/categories_v2/food/japanese_', 'suffix': '.png'}, 'primary': True}]",v-1603876300,False,
45,5234876711d270bafcc779ad,Toronto Japanese Seventh-Day Adventist Church,"{'address': '19 Mortimer Ave.', 'crossStreet': 'Jackman Ave.', 'lat': 43.684033, 'lng': -79.355413, 'labeledLatLngs': [{'label': 'display', 'lat': 43.684033, 'lng': -79.355413}], 'postalCode': 'M4K 1Z9', 'cc': 'CA', 'city': 'Toronto', 'state': 'ON', 'country': 'Canada', 'formattedAddress': ['19 Mortimer Ave. (Jackman Ave.)', 'Toronto ON M4K 1Z9', 'Canada']}","[{'id': '4bf58dd8d48988d132941735', 'name': 'Church', 'pluralName': 'Churches', 'shortName': 'Church', 'icon': {'prefix': 'https://ss3.4sqi.net/img/categories_v2/building/religious_church_', 'suffix': '.png'}, 'primary': True}]",v-1603876300,False,
46,4cb2464ac5e6a1cdaa60e4f6,Yoko Japanese Restaurant,"{'address': '490 McNicoll Ave', 'crossStreet': 'Victoria Park & McNicoll', 'lat': 43.80380932571406, 'lng': -79.34046392059525, 'labeledLatLngs': [{'label': 'display', 'lat': 43.80380932571406, 'lng': -79.34046392059525}], 'postalCode': 'M2H 2C9', 'cc': 'CA', 'city': 'Toronto', 'state': 'ON', 'country': 'Canada', 'formattedAddress': ['490 McNicoll Ave (Victoria Park & McNicoll)', 'Toronto ON M2H 2C9', 'Canada']}","[{'id': '4bf58dd8d48988d111941735', 'name': 'Japanese Restaurant', 'pluralName': 'Japanese Restaurants', 'shortName': 'Japanese', 'icon': {'prefix': 'https://ss3.4sqi.net/img/categories_v2/food/japanese_', 'suffix': '.png'}, 'primary': True}]",v-1603876300,False,
47,55529b6c498ebeaf900b68ff,Soho Japanese Cuisine,"{'lat': 43.823734992444095, 'lng': -79.30280801022815, 'labeledLatLngs': [{'label': 'display', 'lat': 43.823734992444095, 'lng': -79.30280801022815}], 'cc': 'CA', 'city': 'Toronto', 'state': 'ON', 'country': 'Canada', 'formattedAddress': ['Toronto ON', 'Canada']}","[{'id': '4bf58dd8d48988d111941735', 'name': 'Japanese Restaurant', 'pluralName': 'Japanese Restaurants', 'shortName': 'Japanese', 'icon': {'prefix': 'https://ss3.4sqi.net/img/categories_v2/food/japanese_', 'suffix': '.png'}, 'primary': True}]",v-1603876300,False,
48,53eb83cc498e4b18803a32a9,Seoul House Korean Japanese Restaurant,"{'address': '180 Steeles Ave W', 'lat': 43.797243295990626, 'lng': -79.42628145217894, 'labeledLatLngs': [{'label': 'display', 'lat': 43.797243295990626, 'lng': -79.42628145217894}], 'postalCode': 'L4J 2L1', 'cc': 'CA', 'city': 'Thornhill', 'state': 'ON', 'country': 'Canada', 'formattedAddress': ['180 Steeles Ave W', 'Thornhill ON L4J 2L1', 'Canada']}","[{'id': '4bf58dd8d48988d113941735', 'name': 'Korean Restaurant', 'pluralName': 'Korean Restaurants', 'shortName': 'Korean', 'icon': {'prefix': 'https://ss3.4sqi.net/img/categories_v2/food/korean_', 'suffix': '.png'}, 'primary': True}]",v-1603876300,False,
49,50d756eae4b091e3124fd22e,Gange Japanese Sushi,"{'address': '5 Glen Cameron Rd #23A', 'lat': 43.80531184479088, 'lng': -79.41983488796279, 'labeledLatLngs': [{'label': 'display', 'lat': 43.80531184479088, 'lng': -79.41983488796279}], 'cc': 'CA', 'city': 'Thornhill', 'state': 'ON', 'country': 'Canada', 'formattedAddress': ['5 Glen Cameron Rd #23A', 'Thornhill ON', 'Canada']}","[{'id': '4bf58dd8d48988d111941735', 'name': 'Japanese Restaurant', 'pluralName': 'Japanese Restaurants', 'shortName': 'Japanese', 'icon': {'prefix': 'https://ss3.4sqi.net/img/categories_v2/food/japanese_', 'suffix': '.png'}, 'primary': True}]",v-1603876300,False,
69,4c7a99b6794e224bc3026928,Japanese 101,"{'lat': 43.645011, 'lng': -79.38565, 'labeledLatLngs': [{'label': 'display', 'lat': 43.645011, 'lng': -79.38565}], 'cc': 'CA', 'country': 'Canada', 'formattedAddress': ['Canada']}","[{'id': '4bf58dd8d48988d111941735', 'name': 'Japanese Restaurant', 'pluralName': 'Japanese Restaurants', 'shortName': 'Japanese', 'icon': {'prefix': 'https://ss3.4sqi.net/img/categories_v2/food/japanese_', 'suffix': '.png'}, 'primary': True}]",v-1603876300,False,
88,4da61f390437d0a793466fba,Sandown Japanese Market West,"{'address': ""826 Brown's Line"", 'lat': 43.60704780076533, 'lng': -79.54614334647418, 'labeledLatLngs': [{'label': 'display', 'lat': 43.60704780076533, 'lng': -79.54614334647418}], 'postalCode': 'M8W 3W2', 'cc': 'CA', 'city': 'Etobicoke', 'state': 'ON', 'country': 'Canada', 'formattedAddress': [""826 Brown's Line"", 'Etobicoke ON M8W 3W2', 'Canada']}","[{'id': '50be8ee891d4fa8dcc7199a7', 'name': 'Market', 'pluralName': 'Markets', 'shortName': 'Market', 'icon': {'prefix': 'https://ss3.4sqi.net/img/categories_v2/shops/market_', 'suffix': '.png'}, 'primary': True}]",v-1603876300,False,
89,4b743471f964a520f6cc2de3,OMI Thai and Japanese Restaurant,"{'address': '451 Church Street', 'crossStreet': 'Alexander St.', 'lat': 43.662145, 'lng': -79.378965, 'labeledLatLngs': [{'label': 'display', 'lat': 43.662145, 'lng': -79.378965}], 'postalCode': 'M4Y', 'cc': 'CA', 'city': 'Toronto', 'state': 'ON', 'country': 'Canada', 'formattedAddress': ['451 Church Street (Alexander St.)', 'Toronto ON M4Y', 'Canada']}","[{'id': '4bf58dd8d48988d149941735', 'name': 'Thai Restaurant', 'pluralName': 'Thai Restaurants', 'shortName': 'Thai', 'icon': {'prefix': 'https://ss3.4sqi.net/img/categories_v2/food/thai_', 'suffix': '.png'}, 'primary': True}]",v-1603876300,False,
90,524b52fd11d27b378fdc5dc6,Nakayoshi: Ramen Fine Japanese Cuisine,"{'address': '812 Danforth Ave.', 'lat': 43.67973628639116, 'lng': -79.34137624567992, 'labeledLatLngs': [{'label': 'display', 'lat': 43.67973628639116, 'lng': -79.34137624567992}], 'postalCode': 'M4J 1L2', 'cc': 'CA', 'city': 'Toronto', 'state': 'ON', 'country': 'Canada', 'formattedAddress': ['812 Danforth Ave.', 'Toronto ON M4J 1L2', 'Canada']}","[{'id': '55a59bace4b013909087cb24', 'name': 'Ramen Restaurant', 'pluralName': 'Ramen Restaurants', 'shortName': 'Ramen', 'icon': {'prefix': 'https://ss3.4sqi.net/img/categories_v2/food/ramen_', 'suffix': '.png'}, 'primary': True}]",v-1603876300,False,
92,4c76d1c76981bfb7cc7c60e6,Ikki Sushi Japanese And Cuisine,"{'address': '2328 Kingston Rd.', 'crossStreet': 'Sharpe St', 'lat': 43.706561003837585, 'lng': -79.25149470661424, 'labeledLatLngs': [{'label': 'display', 'lat': 43.706561003837585, 'lng': -79.25149470661424}], 'postalCode': 'M1N 1V2', 'cc': 'CA', 'city': 'Scarborough', 'state': 'ON', 'country': 'Canada', 'formattedAddress': ['2328 Kingston Rd. (Sharpe St)', 'Scarborough ON M1N 1V2', 'Canada']}","[{'id': '4bf58dd8d48988d1d2941735', 'name': 'Sushi Restaurant', 'pluralName': 'Sushi Restaurants', 'shortName': 'Sushi', 'icon': {'prefix': 'https://ss3.4sqi.net/img/categories_v2/food/sushi_', 'suffix': '.png'}, 'primary': True}]",v-1603876300,False,
94,4ad4c05df964a52048f620e3,Aki Da Japanese Seafood House,"{'address': '1911 Queens Street East', 'lat': 43.669050975420376, 'lng': -79.30449946579239, 'labeledLatLngs': [{'label': 'display', 'lat': 43.669050975420376, 'lng': -79.30449946579239}], 'postalCode': 'M4L 1H3', 'cc': 'CA', 'city': 'Toronto', 'state': 'ON', 'country': 'Canada', 'formattedAddress': ['1911 Queens Street East', 'Toronto ON M4L 1H3', 'Canada']}","[{'id': '4bf58dd8d48988d111941735', 'name': 'Japanese Restaurant', 'pluralName': 'Japanese Restaurants', 'shortName': 'Japanese', 'icon': {'prefix': 'https://ss3.4sqi.net/img/categories_v2/food/japanese_', 'suffix': '.png'}, 'primary': True}]",v-1603876300,False,
96,4ad89921f964a520b01221e3,Katsu Japanese Restaurant,"{'address': '572 Danforth Ave', 'crossStreet': 'btwn Carlaw & Gough', 'lat': 43.67861856512561, 'lng': -79.34702430590903, 'labeledLatLngs': [{'label': 'display', 'lat': 43.67861856512561, 'lng': -79.34702430590903}], 'postalCode': 'M4K 1R1', 'cc': 'CA', 'city': 'Toronto', 'state': 'ON', 'country': 'Canada', 'formattedAddress': ['572 Danforth Ave (btwn Carlaw & Gough)', 'Toronto ON M4K 1R1', 'Canada']}","[{'id': '4bf58dd8d48988d1d2941735', 'name': 'Sushi Restaurant', 'pluralName': 'Sushi Restaurants', 'shortName': 'Sushi', 'icon': {'prefix': 'https://ss3.4sqi.net/img/categories_v2/food/sushi_', 'suffix': '.png'}, 'primary': True}]",v-1603876300,False,
97,54f7897d498eb5962e613921,Japanese Fast Food Ya,"{'address': '285 Royal York Rd.', 'crossStreet': 'Stanley Ave.', 'lat': 43.6144694295739, 'lng': -79.49739217758179, 'labeledLatLngs': [{'label': 'display', 'lat': 43.6144694295739, 'lng': -79.49739217758179}], 'cc': 'CA', 'city': 'Toronto', 'state': 'ON', 'country': 'Canada', 'formattedAddress': ['285 Royal York Rd. (Stanley Ave.)', 'Toronto ON', 'Canada']}","[{'id': '4bf58dd8d48988d16e941735', 'name': 'Fast Food Restaurant', 'pluralName': 'Fast Food Restaurants', 'shortName': 'Fast Food', 'icon': {'prefix': 'https://ss3.4sqi.net/img/categories_v2/food/fastfood_', 'suffix': '.png'}, 'primary': True}]",v-1603876300,False,
102,574ad72238fa943556d93b8e,Gyu-Kaku Japanese BBQ,"{'address': '81 Church St', 'crossStreet': 'at Adelaide St E', 'lat': 43.651422275497914, 'lng': -79.37504693687086, 'labeledLatLngs': [{'label': 'display', 'lat': 43.651422275497914, 'lng': -79.37504693687086}], 'postalCode': 'M5C 2G2', 'cc': 'CA', 'city': 'Toronto', 'state': 'ON', 'country': 'Canada', 'formattedAddress': ['81 Church St (at Adelaide St E)', 'Toronto ON M5C 2G2', 'Canada']}","[{'id': '4bf58dd8d48988d111941735', 'name': 'Japanese Restaurant', 'pluralName': 'Japanese Restaurants', 'shortName': 'Japanese', 'icon': {'prefix': 'https://ss3.4sqi.net/img/categories_v2/food/japanese_', 'suffix': '.png'}, 'primary': True}]",v-1603876300,False,
106,4b4b60e5f964a520619926e3,Sakura Ichiban Japanese Cuisine,"{'address': '142 Adelaide St. E.', 'lat': 43.651624139281495, 'lng': -79.37246371370311, 'labeledLatLngs': [{'label': 'display', 'lat': 43.651624139281495, 'lng': -79.37246371370311}], 'postalCode': 'M5C 1K9', 'cc': 'CA', 'city': 'Toronto', 'state': 'ON', 'country': 'Canada', 'formattedAddress': ['142 Adelaide St. E.', 'Toronto ON M5C 1K9', 'Canada']}","[{'id': '4bf58dd8d48988d111941735', 'name': 'Japanese Restaurant', 'pluralName': 'Japanese Restaurants', 'shortName': 'Japanese', 'icon': {'prefix': 'https://ss3.4sqi.net/img/categories_v2/food/japanese_', 'suffix': '.png'}, 'primary': True}]",v-1603876300,False,
110,4f763799e4b00562b4b62fd0,Daio Japanese Cuisine,"{'address': '45 Carlton Street', 'lat': 43.66161501496334, 'lng': -79.38106227754196, 'labeledLatLngs': [{'label': 'display', 'lat': 43.66161501496334, 'lng': -79.38106227754196}], 'postalCode': 'M5B 2H9', 'cc': 'CA', 'city': 'Toronto', 'state': 'ON', 'country': 'Canada', 'formattedAddress': ['45 Carlton Street', 'Toronto ON M5B 2H9', 'Canada']}","[{'id': '4bf58dd8d48988d111941735', 'name': 'Japanese Restaurant', 'pluralName': 'Japanese Restaurants', 'shortName': 'Japanese', 'icon': {'prefix': 'https://ss3.4sqi.net/img/categories_v2/food/japanese_', 'suffix': '.png'}, 'primary': True}]",v-1603876300,False,
111,56dd9d68498eb4e5edcb30f9,Spring Rolls | Japanese Restaurant in Toronto,"{'address': '40 Dundas St W Box 36,', 'lat': 43.65610515821675, 'lng': -79.38349485397339, 'labeledLatLngs': [{'label': 'display', 'lat': 43.65610515821675, 'lng': -79.38349485397339}], 'postalCode': 'M5G 2C2', 'cc': 'CA', 'city': 'Toronto', 'state': 'ON', 'country': 'Canada', 'formattedAddress': ['40 Dundas St W Box 36,', 'Toronto ON M5G 2C2', 'Canada']}","[{'id': '56aa371be4b08b9a8d573538', 'name': 'Theme Restaurant', 'pluralName': 'Theme Restaurants', 'shortName': 'Theme Restaurant', 'icon': {'prefix': 'https://ss3.4sqi.net/img/categories_v2/food/default_', 'suffix': '.png'}, 'primary': True}]",v-1603876300,False,
113,4c12b8ba82a3c9b6083ffaf8,Mt. Fuji Japanese Restaurant,"{'lat': 43.658555, 'lng': -79.384992, 'labeledLatLngs': [{'label': 'display', 'lat': 43.658555, 'lng': -79.384992}], 'cc': 'CA', 'city': 'Toronto', 'state': 'ON', 'country': 'Canada', 'formattedAddress': ['Toronto ON', 'Canada']}","[{'id': '4bf58dd8d48988d111941735', 'name': 'Japanese Restaurant', 'pluralName': 'Japanese Restaurants', 'shortName': 'Japanese', 'icon': {'prefix': 'https://ss3.4sqi.net/img/categories_v2/food/japanese_', 'suffix': '.png'}, 'primary': True}]",v-1603876300,False,
115,57c76c1b498e26057391344c,Uncle Tetsu's Japanese Cheesecake,"{'lat': 43.64442750617172, 'lng': -79.38131123056226, 'labeledLatLngs': [{'label': 'display', 'lat': 43.64442750617172, 'lng': -79.38131123056226}], 'postalCode': 'M5J', 'cc': 'CA', 'city': 'Toronto', 'state': 'ON', 'country': 'Canada', 'formattedAddress': ['Toronto ON M5J', 'Canada']}","[{'id': '4bf58dd8d48988d16a941735', 'name': 'Bakery', 'pluralName': 'Bakeries', 'shortName': 'Bakery', 'icon': {'prefix': 'https://ss3.4sqi.net/img/categories_v2/food/bakery_', 'suffix': '.png'}, 'primary': True}]",v-1603876300,False,
116,4fbbb3ace4b01e39077b4d55,Akashiro Japanese Restaurant & Bar,"{'address': '220 Yonge St.', 'crossStreet': 'in Toronto Eaton Centre Urban Eatery', 'lat': 43.65596504293232, 'lng': -79.38054070644233, 'labeledLatLngs': [{'label': 'display', 'lat': 43.65596504293232, 'lng': -79.38054070644233}], 'cc': 'CA', 'city': 'Toronto', 'state': 'ON', 'country': 'Canada', 'formattedAddress': ['220 Yonge St. (in Toronto Eaton Centre Urban Eatery)', 'Toronto ON', 'Canada']}","[{'id': '4bf58dd8d48988d1d2941735', 'name': 'Sushi Restaurant', 'pluralName': 'Sushi Restaurants', 'shortName': 'Sushi', 'icon': {'prefix': 'https://ss3.4sqi.net/img/categories_v2/food/sushi_', 'suffix': '.png'}, 'primary': True}]",v-1603876300,False,
117,4c9ccede8afca093659ef015,Omniwa Japanese Cuisine,"{'address': '214 King St. West', 'lat': 43.64610862445569, 'lng': -79.3859337977365, 'labeledLatLngs': [{'label': 'display', 'lat': 43.64610862445569, 'lng': -79.3859337977365}], 'cc': 'CA', 'city': 'Toronto', 'state': 'ON', 'country': 'Canada', 'formattedAddress': ['214 King St. West', 'Toronto ON', 'Canada']}","[{'id': '4bf58dd8d48988d1d2941735', 'name': 'Sushi Restaurant', 'pluralName': 'Sushi Restaurants', 'shortName': 'Sushi', 'icon': {'prefix': 'https://ss3.4sqi.net/img/categories_v2/food/sushi_', 'suffix': '.png'}, 'primary': True}]",v-1603876300,False,
119,4dee7865fa76b21ed99c4ec6,The Japanese Paper Place,"{'address': '77 brock avenue', 'lat': 43.643705, 'lng': -79.433203, 'labeledLatLngs': [{'label': 'display', 'lat': 43.643705, 'lng': -79.433203}], 'cc': 'CA', 'city': 'Toronto', 'state': 'ON', 'country': 'Canada', 'formattedAddress': ['77 brock avenue', 'Toronto ON', 'Canada']}","[{'id': '4bf58dd8d48988d121951735', 'name': 'Paper / Office Supplies Store', 'pluralName': 'Paper / Office Supplies Stores', 'shortName': 'Office Supplies', 'icon': {'prefix': 'https://ss3.4sqi.net/img/categories_v2/shops/papergoods_', 'suffix': '.png'}, 'primary': True}]",v-1603876300,False,
120,4ae4b055f964a520229d21e3,Kyoto House Japanese Restaurant,"{'address': '143 Dundas St. West', 'lat': 43.65538110598594, 'lng': -79.38527010094231, 'labeledLatLngs': [{'label': 'display', 'lat': 43.65538110598594, 'lng': -79.38527010094231}], 'cc': 'CA', 'city': 'Toronto', 'state': 'ON', 'country': 'Canada', 'formattedAddress': ['143 Dundas St. West', 'Toronto ON', 'Canada']}","[{'id': '4bf58dd8d48988d1d2941735', 'name': 'Sushi Restaurant', 'pluralName': 'Sushi Restaurants', 'shortName': 'Sushi', 'icon': {'prefix': 'https://ss3.4sqi.net/img/categories_v2/food/sushi_', 'suffix': '.png'}, 'primary': True}]",v-1603876300,False,
122,519e6f11498e7903656813d7,FUSHIMI Authentic Japanese Cuisine,"{'address': '491 Church St.', 'crossStreet': 'btwn Wellesley St. & Maitland St.', 'lat': 43.66515221745519, 'lng': -79.38071878742738, 'labeledLatLngs': [{'label': 'display', 'lat': 43.66515221745519, 'lng': -79.38071878742738}], 'postalCode': 'M4Y 2C6', 'cc': 'CA', 'neighborhood': 'Church and Wellesley', 'city': 'Toronto', 'state': 'ON', 'country': 'Canada', 'formattedAddress': ['491 Church St. (btwn Wellesley St. & Maitland St.)', 'Toronto ON M4Y 2C6', 'Canada']}","[{'id': '4bf58dd8d48988d1d2941735', 'name': 'Sushi Restaurant', 'pluralName': 'Sushi Restaurants', 'shortName': 'Sushi', 'icon': {'prefix': 'https://ss3.4sqi.net/img/categories_v2/food/sushi_', 'suffix': '.png'}, 'primary': True}]",v-1603876300,False,
123,4ad4c060f964a52087f720e3,Benihana Japanese Steakhouse,"{'address': '100 Front St W', 'crossStreet': 'in The Fairmont Royal York', 'lat': 43.64548308002378, 'lng': -79.38278346526347, 'labeledLatLngs': [{'label': 'display', 'lat': 43.64548308002378, 'lng': -79.38278346526347}], 'postalCode': 'M5J 1E3', 'cc': 'CA', 'city': 'Toronto', 'state': 'ON', 'country': 'Canada', 'formattedAddress': ['100 Front St W (in The Fairmont Royal York)', 'Toronto ON M5J 1E3', 'Canada']}","[{'id': '4bf58dd8d48988d111941735', 'name': 'Japanese Restaurant', 'pluralName': 'Japanese Restaurants', 'shortName': 'Japanese', 'icon': {'prefix': 'https://ss3.4sqi.net/img/categories_v2/food/japanese_', 'suffix': '.png'}, 'primary': True}]",v-1603876300,False,
124,4ada36ecf964a520132021e3,Aitas Japanese language school,"{'address': '180 Bloor st west', 'lat': 43.668922033361426, 'lng': -79.3951098136092, 'labeledLatLngs': [{'label': 'display', 'lat': 43.668922033361426, 'lng': -79.3951098136092}], 'cc': 'CA', 'city': 'Toronto', 'state': 'ON', 'country': 'Canada', 'formattedAddress': ['180 Bloor st west', 'Toronto ON', 'Canada']}","[{'id': '4bf58dd8d48988d13b941735', 'name': 'School', 'pluralName': 'Schools', 'shortName': 'School', 'icon': {'prefix': 'https://ss3.4sqi.net/img/categories_v2/building/school_', 'suffix': '.png'}, 'primary': True}]",v-1603876300,False,
127,573b4892498e3549f8603989,Ganto Japanese Sushi Restaurant,"{'address': '565 King St. W', 'lat': 43.644274, 'lng': -79.398879, 'labeledLatLngs': [{'label': 'display', 'lat': 43.644274, 'lng': -79.398879}], 'cc': 'CA', 'city': 'Toronto', 'state': 'ON', 'country': 'Canada', 'formattedAddress': ['565 King St. W', 'Toronto ON', 'Canada']}","[{'id': '4bf58dd8d48988d1d2941735', 'name': 'Sushi Restaurant', 'pluralName': 'Sushi Restaurants', 'shortName': 'Sushi', 'icon': {'prefix': 'https://ss3.4sqi.net/img/categories_v2/food/sushi_', 'suffix': '.png'}, 'primary': True}]",v-1603876300,False,
130,4b50f565f964a5209b3a27e3,Nijo Japanese Restaurant,"{'address': '345 Bloor St. E', 'crossStreet': 'at Huntley St.', 'lat': 43.671848798792055, 'lng': -79.37882430813714, 'labeledLatLngs': [{'label': 'display', 'lat': 43.671848798792055, 'lng': -79.37882430813714}], 'postalCode': 'M4W 3J6', 'cc': 'CA', 'city': 'Toronto', 'state': 'ON', 'country': 'Canada', 'formattedAddress': ['345 Bloor St. E (at Huntley St.)', 'Toronto ON M4W 3J6', 'Canada']}","[{'id': '4bf58dd8d48988d111941735', 'name': 'Japanese Restaurant', 'pluralName': 'Japanese Restaurants', 'shortName': 'Japanese', 'icon': {'prefix': 'https://ss3.4sqi.net/img/categories_v2/food/japanese_', 'suffix': '.png'}, 'primary': True}]",v-1603876300,False,
131,4afa1f33f964a520e91622e3,Fune Japanese Restaurant,"{'address': '100 Simcoe St.', 'crossStreet': 'at Pearl St.', 'lat': 43.64851365544565, 'lng': -79.38645657820041, 'labeledLatLngs': [{'label': 'display', 'lat': 43.64851365544565, 'lng': -79.38645657820041}], 'cc': 'CA', 'city': 'Toronto', 'state': 'ON', 'country': 'Canada', 'formattedAddress': ['100 Simcoe St. (at Pearl St.)', 'Toronto ON', 'Canada']}","[{'id': '4bf58dd8d48988d111941735', 'name': 'Japanese Restaurant', 'pluralName': 'Japanese Restaurants', 'shortName': 'Japanese', 'icon': {'prefix': 'https://ss3.4sqi.net/img/categories_v2/food/japanese_', 'suffix': '.png'}, 'primary': True}]",v-1603876300,False,
132,4ae8af94f964a52073b121e3,Things Japanese,"{'address': '128 Harbord St.', 'lat': 43.662507, 'lng': -79.404819, 'labeledLatLngs': [{'label': 'display', 'lat': 43.662507, 'lng': -79.404819}], 'cc': 'CA', 'city': 'Toronto', 'state': 'ON', 'country': 'Canada', 'formattedAddress': ['128 Harbord St.', 'Toronto ON', 'Canada']}","[{'id': '4bf58dd8d48988d128951735', 'name': 'Gift Shop', 'pluralName': 'Gift Shops', 'shortName': 'Gift Shop', 'icon': {'prefix': 'https://ss3.4sqi.net/img/categories_v2/shops/giftshop_', 'suffix': '.png'}, 'primary': True}]",v-1603876300,False,
135,5e21ee584933aa0008a1d6f0,INJapan Japanese Restaurant,"{'address': '124 Atlantic Ave', 'lat': 43.63954, 'lng': -79.42121, 'labeledLatLngs': [{'label': 'display', 'lat': 43.63954, 'lng': -79.42121}], 'postalCode': 'M6K 1X9', 'cc': 'CA', 'city': 'Toronto', 'state': 'ON', 'country': 'Canada', 'formattedAddress': ['124 Atlantic Ave', 'Toronto ON M6K 1X9', 'Canada']}","[{'id': '4bf58dd8d48988d111941735', 'name': 'Japanese Restaurant', 'pluralName': 'Japanese Restaurants', 'shortName': 'Japanese', 'icon': {'prefix': 'https://ss3.4sqi.net/img/categories_v2/food/japanese_', 'suffix': '.png'}, 'primary': True}]",v-1603876300,False,
136,5e6d5f13abb87c0007631519,Varsity Japanese And Korean,"{'address': '914 Bloor St W', 'lat': 43.661964, 'lng': -79.426525, 'labeledLatLngs': [{'label': 'display', 'lat': 43.661964, 'lng': -79.426525}], 'postalCode': 'M6H 1L1', 'cc': 'CA', 'city': 'Toronto', 'state': 'ON', 'country': 'Canada', 'formattedAddress': ['914 Bloor St W', 'Toronto ON M6H 1L1', 'Canada']}","[{'id': '4bf58dd8d48988d113941735', 'name': 'Korean Restaurant', 'pluralName': 'Korean Restaurants', 'shortName': 'Korean', 'icon': {'prefix': 'https://ss3.4sqi.net/img/categories_v2/food/korean_', 'suffix': '.png'}, 'primary': True}]",v-1603876300,False,
137,4ad4c060f964a52062f720e3,Shogun Japanese Restaurant,"{'address': '154 Cumberland Street', 'lat': 43.66993425275334, 'lng': -79.3932274118881, 'labeledLatLngs': [{'label': 'display', 'lat': 43.66993425275334, 'lng': -79.3932274118881}], 'postalCode': 'M5R 1A8', 'cc': 'CA', 'city': 'Toronto', 'state': 'ON', 'country': 'Canada', 'formattedAddress': ['154 Cumberland Street', 'Toronto ON M5R 1A8', 'Canada']}","[{'id': '4bf58dd8d48988d111941735', 'name': 'Japanese Restaurant', 'pluralName': 'Japanese Restaurants', 'shortName': 'Japanese', 'icon': {'prefix': 'https://ss3.4sqi.net/img/categories_v2/food/japanese_', 'suffix': '.png'}, 'primary': True}]",v-1603876300,False,
138,501d4d55e4b0825080212f3c,Gonoe Sushi Japanese Restaurant,"{'address': '262 Queens Quay W', 'lat': 43.63901430970685, 'lng': -79.38591360078077, 'labeledLatLngs': [{'label': 'display', 'lat': 43.63901430970685, 'lng': -79.38591360078077}], 'cc': 'CA', 'city': 'Toronto', 'state': 'ON', 'country': 'Canada', 'formattedAddress': ['262 Queens Quay W', 'Toronto ON', 'Canada']}","[{'id': '4bf58dd8d48988d1d2941735', 'name': 'Sushi Restaurant', 'pluralName': 'Sushi Restaurants', 'shortName': 'Sushi', 'icon': {'prefix': 'https://ss3.4sqi.net/img/categories_v2/food/sushi_', 'suffix': '.png'}, 'primary': True}]",v-1603876300,False,
143,4ad4c05ff964a5203af720e3,Yamato Japanese Restaurant,"{'address': '24 Bellair St.', 'lat': 43.67068330431913, 'lng': -79.39105580388929, 'labeledLatLngs': [{'label': 'display', 'lat': 43.67068330431913, 'lng': -79.39105580388929}], 'postalCode': 'M5R 2C7', 'cc': 'CA', 'city': 'Toronto', 'state': 'ON', 'country': 'Canada', 'formattedAddress': ['24 Bellair St.', 'Toronto ON M5R 2C7', 'Canada']}","[{'id': '4bf58dd8d48988d111941735', 'name': 'Japanese Restaurant', 'pluralName': 'Japanese Restaurants', 'shortName': 'Japanese', 'icon': {'prefix': 'https://ss3.4sqi.net/img/categories_v2/food/japanese_', 'suffix': '.png'}, 'primary': True}]",v-1603876300,False,
146,56418c69498ec00425302f6a,Imanishi Japanese Kitchen,"{'address': '1330 Dundas St W', 'crossStreet': 'at Rusholme Rd', 'lat': 43.649545622254195, 'lng': -79.42655051598773, 'labeledLatLngs': [{'label': 'display', 'lat': 43.649545622254195, 'lng': -79.42655051598773}], 'postalCode': 'M6J 1Y1', 'cc': 'CA', 'city': 'Toronto', 'state': 'ON', 'country': 'Canada', 'formattedAddress': ['1330 Dundas St W (at Rusholme Rd)', 'Toronto ON M6J 1Y1', 'Canada']}","[{'id': '4bf58dd8d48988d111941735', 'name': 'Japanese Restaurant', 'pluralName': 'Japanese Restaurants', 'shortName': 'Japanese', 'icon': {'prefix': 'https://ss3.4sqi.net/img/categories_v2/food/japanese_', 'suffix': '.png'}, 'primary': True}]",v-1603876300,False,
149,4d7299a3d976236a3b250979,Toronto Japanese School,"{'lat': 43.67768, 'lng': -79.430666, 'labeledLatLngs': [{'label': 'display', 'lat': 43.67768, 'lng': -79.430666}], 'cc': 'CA', 'city': 'オールドトロント', 'state': 'ON', 'country': 'Canada', 'formattedAddress': ['オールドトロント ON', 'Canada']}","[{'id': '4bf58dd8d48988d1a8941735', 'name': 'General College & University', 'pluralName': 'General Colleges & Universities', 'shortName': 'Education', 'icon': {'prefix': 'https://ss3.4sqi.net/img/categories_v2/education/other_', 'suffix': '.png'}, 'primary': True}]",v-1603876300,False,
151,4b5f1f11f964a52047a729e3,Yuki Japanese Restaurant,"{'address': '3259 Dufferin St.', 'lat': 43.72060971477955, 'lng': -79.45611946822187, 'labeledLatLngs': [{'label': 'display', 'lat': 43.72060971477955, 'lng': -79.45611946822187}], 'postalCode': 'M6A 2T2', 'cc': 'CA', 'city': 'Toronto', 'state': 'ON', 'country': 'Canada', 'formattedAddress': ['3259 Dufferin St.', 'Toronto ON M6A 2T2', 'Canada']}","[{'id': '4bf58dd8d48988d1d2941735', 'name': 'Sushi Restaurant', 'pluralName': 'Sushi Restaurants', 'shortName': 'Sushi', 'icon': {'prefix': 'https://ss3.4sqi.net/img/categories_v2/food/sushi_', 'suffix': '.png'}, 'primary': True}]",v-1603876300,False,
152,5b4fc60ba42362002c76a294,Uncle Tetsu Japanese Cheesecake,"{'address': '39 Orfus Rd, Unit C', 'crossStreet': 'Dufferin Rd', 'lat': 43.7195, 'lng': -79.458921, 'labeledLatLngs': [{'label': 'display', 'lat': 43.7195, 'lng': -79.458921}], 'postalCode': 'M6A 1L7', 'cc': 'CA', 'city': 'Toronto', 'state': 'ON', 'country': 'Canada', 'formattedAddress': ['39 Orfus Rd, Unit C (Dufferin Rd)', 'Toronto ON M6A 1L7', 'Canada']}","[{'id': '4bf58dd8d48988d16a941735', 'name': 'Bakery', 'pluralName': 'Bakeries', 'shortName': 'Bakery', 'icon': {'prefix': 'https://ss3.4sqi.net/img/categories_v2/food/bakery_', 'suffix': '.png'}, 'primary': True}]",v-1603876300,False,
163,4f84ac10e4b063d3eb0438ef,Japanese International Students' Association,"{'address': '4700 Keele Street', 'lat': 43.775443, 'lng': -79.502284, 'labeledLatLngs': [{'label': 'display', 'lat': 43.775443, 'lng': -79.502284}], 'postalCode': 'M3J 1P3', 'cc': 'CA', 'city': 'Toronto', 'state': 'ON', 'country': 'Canada', 'formattedAddress': ['4700 Keele Street', 'Toronto ON M3J 1P3', 'Canada']}","[{'id': '4bf58dd8d48988d1ab941735', 'name': 'Student Center', 'pluralName': 'Student Centers', 'shortName': 'Student Center', 'icon': {'prefix': 'https://ss3.4sqi.net/img/categories_v2/education/studentcenter_', 'suffix': '.png'}, 'primary': True}]",v-1603876300,False,
174,5e857f555a533b000892aa1a,Top Japanese Used & New Auto Parts,"{'address': '75 Ashwarren Rd', 'lat': 43.757565, 'lng': -79.4835626, 'labeledLatLngs': [{'label': 'display', 'lat': 43.757565, 'lng': -79.4835626}], 'postalCode': 'M3J 1Z7', 'cc': 'CA', 'city': 'North York', 'state': 'ON', 'country': 'Canada', 'formattedAddress': ['75 Ashwarren Rd', 'North York ON M3J 1Z7', 'Canada']}","[{'id': '4bf58dd8d48988d124951735', 'name': 'Automotive Shop', 'pluralName': 'Automotive Shops', 'shortName': 'Automotive', 'icon': {'prefix': 'https://ss3.4sqi.net/img/categories_v2/shops/automotive_', 'suffix': '.png'}, 'primary': True}]",v-1603876300,False,
175,57d59ebb498e4af69ba5d58c,Kokyo Japanese Restaurant,"{'address': '572 Rogers Rd', 'crossStreet': 'at Keele St', 'lat': 43.682316, 'lng': -79.47113, 'labeledLatLngs': [{'label': 'display', 'lat': 43.682316, 'lng': -79.47113}], 'postalCode': 'M6M 1B6', 'cc': 'CA', 'city': 'Toronto', 'state': 'ON', 'country': 'Canada', 'formattedAddress': ['572 Rogers Rd (at Keele St)', 'Toronto ON M6M 1B6', 'Canada']}","[{'id': '4bf58dd8d48988d1d2941735', 'name': 'Sushi Restaurant', 'pluralName': 'Sushi Restaurants', 'shortName': 'Sushi', 'icon': {'prefix': 'https://ss3.4sqi.net/img/categories_v2/food/sushi_', 'suffix': '.png'}, 'primary': True}]",v-1603876300,False,
186,577d97f4498ed759a6e3cbe9,Han Oak Korean/Japanese Restaurant,"{'address': '1450 Clark Ave W', 'lat': 43.798507, 'lng': -79.470362, 'labeledLatLngs': [{'label': 'display', 'lat': 43.798507, 'lng': -79.470362}], 'postalCode': 'L4J 7R5', 'cc': 'CA', 'city': 'Vaughan', 'state': 'ON', 'country': 'Canada', 'formattedAddress': ['1450 Clark Ave W', 'Vaughan ON L4J 7R5', 'Canada']}","[{'id': '4bf58dd8d48988d113941735', 'name': 'Korean Restaurant', 'pluralName': 'Korean Restaurants', 'shortName': 'Korean', 'icon': {'prefix': 'https://ss3.4sqi.net/img/categories_v2/food/korean_', 'suffix': '.png'}, 'primary': True}]",v-1603876300,False,
187,4b11a781f964a520808123e3,Edo-Ko Japanese Restaurant,"{'address': '431 Spadina Rd.', 'crossStreet': 'Bathurst St & St. Clair Ave W', 'lat': 43.68807829785109, 'lng': -79.41454113853311, 'labeledLatLngs': [{'label': 'display', 'lat': 43.68807829785109, 'lng': -79.41454113853311}], 'cc': 'CA', 'city': 'Toronto', 'state': 'ON', 'country': 'Canada', 'formattedAddress': ['431 Spadina Rd. (Bathurst St & St. Clair Ave W)', 'Toronto ON', 'Canada']}","[{'id': '4bf58dd8d48988d111941735', 'name': 'Japanese Restaurant', 'pluralName': 'Japanese Restaurants', 'shortName': 'Japanese', 'icon': {'prefix': 'https://ss3.4sqi.net/img/categories_v2/food/japanese_', 'suffix': '.png'}, 'primary': True}]",v-1603876300,False,
188,56d2c005cd10c2bb8394193f,Osaka Sushi Japanese Restaurant,"{'address': '1620 Bloor St W', 'lat': 43.65610515821675, 'lng': -79.45537805557251, 'labeledLatLngs': [{'label': 'display', 'lat': 43.65610515821675, 'lng': -79.45537805557251}], 'postalCode': 'M6P 1A7', 'cc': 'CA', 'city': 'Toronto', 'state': 'ON', 'country': 'Canada', 'formattedAddress': ['1620 Bloor St W', 'Toronto ON M6P 1A7', 'Canada']}","[{'id': '4bf58dd8d48988d1d2941735', 'name': 'Sushi Restaurant', 'pluralName': 'Sushi Restaurants', 'shortName': 'Sushi', 'icon': {'prefix': 'https://ss3.4sqi.net/img/categories_v2/food/sushi_', 'suffix': '.png'}, 'primary': True}]",v-1603876300,False,
241,5a62412b1108ba191da5ba06,KAKA,"{'address': '655 Bay Street', 'crossStreet': '( Bay st & Elm st)', 'lat': 43.65745745164475, 'lng': -79.38419169987876, 'labeledLatLngs': [{'label': 'display', 'lat': 43.65745745164475, 'lng': -79.38419169987876}], 'postalCode': 'M5G 1Z4', 'cc': 'CA', 'city': 'Toronto', 'state': 'ON', 'country': 'Canada', 'formattedAddress': ['655 Bay Street (( Bay st & Elm st))', 'Toronto ON M5G 1Z4', 'Canada']}","[{'id': '4bf58dd8d48988d111941735', 'name': 'Japanese Restaurant', 'pluralName': 'Japanese Restaurants', 'shortName': 'Japanese', 'icon': {'prefix': 'https://ss3.4sqi.net/img/categories_v2/food/japanese_', 'suffix': '.png'}, 'primary': True}]",v-1603876301,False,
243,4ae787b9f964a52020ac21e3,Tokyo Kitchen,"{'address': 'Charles St.', 'crossStreet': 'at Yonge St.', 'lat': 43.66878262373862, 'lng': -79.38515305215851, 'labeledLatLngs': [{'label': 'display', 'lat': 43.66878262373862, 'lng': -79.38515305215851}], 'cc': 'CA', 'city': 'Toronto', 'state': 'ON', 'country': 'Canada', 'formattedAddress': ['Charles St. (at Yonge St.)', 'Toronto ON', 'Canada']}","[{'id': '4bf58dd8d48988d111941735', 'name': 'Japanese Restaurant', 'pluralName': 'Japanese Restaurants', 'shortName': 'Japanese', 'icon': {'prefix': 'https://ss3.4sqi.net/img/categories_v2/food/japanese_', 'suffix': '.png'}, 'primary': True}]",v-1603876301,False,
249,4adf4011f964a520b97821e3,Aji Sai Japanese Restaurant,"{'address': '467 Queen St. W.', 'crossStreet': 'at Spadina Ave.', 'lat': 43.64849829452195, 'lng': -79.39746943581353, 'labeledLatLngs': [{'label': 'display', 'lat': 43.64849829452195, 'lng': -79.39746943581353}], 'postalCode': 'M5V 2A9', 'cc': 'CA', 'city': 'Toronto', 'state': 'ON', 'country': 'Canada', 'formattedAddress': ['467 Queen St. W. (at Spadina Ave.)', 'Toronto ON M5V 2A9', 'Canada']}","[{'id': '4bf58dd8d48988d1d2941735', 'name': 'Sushi Restaurant', 'pluralName': 'Sushi Restaurants', 'shortName': 'Sushi', 'icon': {'prefix': 'https://ss3.4sqi.net/img/categories_v2/food/sushi_', 'suffix': '.png'}, 'primary': True}]",v-1603876301,False,
251,574f4eb4498ee59a1b92c213,The japanese paper place,"{'address': '103 The East Mall', 'lat': 43.621842, 'lng': -79.548139, 'labeledLatLngs': [{'label': 'display', 'lat': 43.621842, 'lng': -79.548139}], 'cc': 'CA', 'country': 'Canada', 'formattedAddress': ['103 The East Mall', 'Canada']}","[{'id': '4bf58dd8d48988d121951735', 'name': 'Paper / Office Supplies Store', 'pluralName': 'Paper / Office Supplies Stores', 'shortName': 'Office Supplies', 'icon': {'prefix': 'https://ss3.4sqi.net/img/categories_v2/shops/papergoods_', 'suffix': '.png'}, 'primary': True}]",v-1603876301,False,
260,4b931b87f964a520763534e3,Kagawa Japanese Restaurant,"{'address': '1177 Central Pkwy. W.', 'crossStreet': 'btwn Burnhamthorpe Rd. W. & Erindale Station Rd.', 'lat': 43.567737, 'lng': -79.66092, 'labeledLatLngs': [{'label': 'display', 'lat': 43.567737, 'lng': -79.66092}], 'postalCode': 'L5C 4P3', 'cc': 'CA', 'city': 'Mississauga', 'state': 'ON', 'country': 'Canada', 'formattedAddress': ['1177 Central Pkwy. W. (btwn Burnhamthorpe Rd. W. & Erindale Station Rd.)', 'Mississauga ON L5C 4P3', 'Canada']}","[{'id': '4bf58dd8d48988d111941735', 'name': 'Japanese Restaurant', 'pluralName': 'Japanese Restaurants', 'shortName': 'Japanese', 'icon': {'prefix': 'https://ss3.4sqi.net/img/categories_v2/food/japanese_', 'suffix': '.png'}, 'primary': True}]",v-1603876301,False,
267,550f5c59498efe6c67fe7596,Hina Japanese Restaurant,"{'address': '769 The Queensway', 'lat': 43.625863, 'lng': -79.504237, 'labeledLatLngs': [{'label': 'display', 'lat': 43.625863, 'lng': -79.504237}], 'cc': 'CA', 'city': 'Toronto', 'state': 'ON', 'country': 'Canada', 'formattedAddress': ['769 The Queensway', 'Toronto ON', 'Canada']}","[{'id': '4bf58dd8d48988d111941735', 'name': 'Japanese Restaurant', 'pluralName': 'Japanese Restaurants', 'shortName': 'Japanese', 'icon': {'prefix': 'https://ss3.4sqi.net/img/categories_v2/food/japanese_', 'suffix': '.png'}, 'primary': True}]",v-1603876301,False,
274,4bb906b098c7ef3bbab43102,Miga Korean & Japanese B.B.Q. Restaurant,"{'address': '2382 Dundas St W', 'crossStreet': 'btwn Liruma Rd. & Woodchester Dr.', 'lat': 43.52963572594408, 'lng': -79.67365331472774, 'labeledLatLngs': [{'label': 'display', 'lat': 43.52963572594408, 'lng': -79.67365331472774}], 'postalCode': 'L5K 1R7', 'cc': 'CA', 'city': 'Mississauga', 'state': 'ON', 'country': 'Canada', 'formattedAddress': ['2382 Dundas St W (btwn Liruma Rd. & Woodchester Dr.)', 'Mississauga ON L5K 1R7', 'Canada']}","[{'id': '4bf58dd8d48988d113941735', 'name': 'Korean Restaurant', 'pluralName': 'Korean Restaurants', 'shortName': 'Korean', 'icon': {'prefix': 'https://ss3.4sqi.net/img/categories_v2/food/korean_', 'suffix': '.png'}, 'primary': True}]",v-1603876301,False,
278,4af74626f964a520dc0722e3,Wasabi Japanese Cuisine,"{'address': '1730 Bloor St. W.', 'crossStreet': 'at Keele St.', 'lat': 43.654933286098064, 'lng': -79.45930599395479, 'labeledLatLngs': [{'label': 'display', 'lat': 43.654933286098064, 'lng': -79.45930599395479}], 'postalCode': 'M6P 1B3', 'cc': 'CA', 'city': 'Toronto', 'state': 'ON', 'country': 'Canada', 'formattedAddress': ['1730 Bloor St. W. (at Keele St.)', 'Toronto ON M6P 1B3', 'Canada']}","[{'id': '4bf58dd8d48988d1d2941735', 'name': 'Sushi Restaurant', 'pluralName': 'Sushi Restaurants', 'shortName': 'Sushi', 'icon': {'prefix': 'https://ss3.4sqi.net/img/categories_v2/food/sushi_', 'suffix': '.png'}, 'primary': True}]",v-1603876301,False,
285,4efdfd6002d580f8ee26d456,Diamond Japanese Auto Parts,"{'address': '1625 Trinity Dr, Mississauga, ON L5T 1P8', 'lat': 43.66435702099236, 'lng': -79.65887487613492, 'labeledLatLngs': [{'label': 'display', 'lat': 43.66435702099236, 'lng': -79.65887487613492}], 'postalCode': 'L5T 1P8', 'cc': 'CA', 'city': 'Mississauga', 'state': 'ON', 'country': 'Canada', 'formattedAddress': ['1625 Trinity Dr, Mississauga, ON L5T 1P8', 'Mississauga ON L5T 1P8', 'Canada']}","[{'id': '4bf58dd8d48988d124951735', 'name': 'Automotive Shop', 'pluralName': 'Automotive Shops', 'shortName': 'Automotive', 'icon': {'prefix': 'https://ss3.4sqi.net/img/categories_v2/shops/automotive_', 'suffix': '.png'}, 'primary': True}]",v-1603876301,False,
291,4e826111e5fa7e8f399de521,Mye Japanese Restaurant,"{'address': '143 Church St', 'lat': 43.44487435292211, 'lng': -79.67064997202237, 'labeledLatLngs': [{'label': 'display', 'lat': 43.44487435292211, 'lng': -79.67064997202237}], 'postalCode': 'L6J 1N1', 'cc': 'CA', 'city': 'Oakville', 'state': 'ON', 'country': 'Canada', 'formattedAddress': ['143 Church St', 'Oakville ON L6J 1N1', 'Canada']}","[{'id': '4bf58dd8d48988d111941735', 'name': 'Japanese Restaurant', 'pluralName': 'Japanese Restaurants', 'shortName': 'Japanese', 'icon': {'prefix': 'https://ss3.4sqi.net/img/categories_v2/food/japanese_', 'suffix': '.png'}, 'primary': True}]",v-1603876301,False,
292,4cb5e1383ac93704f38ccf0a,Kobe Japanese Restaurant,"{'address': '2911 Derry Rd. E', 'crossStreet': 'at Airport Rd.', 'lat': 43.70315712894421, 'lng': -79.64379787445068, 'labeledLatLngs': [{'label': 'display', 'lat': 43.70315712894421, 'lng': -79.64379787445068}], 'cc': 'CA', 'city': 'Mississauga', 'state': 'ON', 'country': 'Canada', 'formattedAddress': ['2911 Derry Rd. E (at Airport Rd.)', 'Mississauga ON', 'Canada']}","[{'id': '4bf58dd8d48988d111941735', 'name': 'Japanese Restaurant', 'pluralName': 'Japanese Restaurants', 'shortName': 'Japanese', 'icon': {'prefix': 'https://ss3.4sqi.net/img/categories_v2/food/japanese_', 'suffix': '.png'}, 'primary': True}]",v-1603876301,False,
327,4bc777cf8b7c9c74be8336cf,Kyushou Japanese Noodles,"{'lat': 43.824985, 'lng': -79.300537, 'labeledLatLngs': [{'label': 'display', 'lat': 43.824985, 'lng': -79.300537}], 'cc': 'CA', 'country': 'Canada', 'formattedAddress': ['Canada']}","[{'id': '4bf58dd8d48988d111941735', 'name': 'Japanese Restaurant', 'pluralName': 'Japanese Restaurants', 'shortName': 'Japanese', 'icon': {'prefix': 'https://ss3.4sqi.net/img/categories_v2/food/japanese_', 'suffix': '.png'}, 'primary': True}]",v-1603876301,False,
328,4b740254f964a52097c32de3,Sakura Sushi Japanese Restaurant,"{'address': '1550 Kingston Rd', 'crossStreet': 'at Valley Farm Rd', 'lat': 43.84360188398366, 'lng': -79.08146056935117, 'labeledLatLngs': [{'label': 'display', 'lat': 43.84360188398366, 'lng': -79.08146056935117}], 'postalCode': 'L1V 1C3', 'cc': 'CA', 'city': 'Pickering', 'state': 'ON', 'country': 'Canada', 'formattedAddress': ['1550 Kingston Rd (at Valley Farm Rd)', 'Pickering ON L1V 1C3', 'Canada']}","[{'id': '4bf58dd8d48988d1d2941735', 'name': 'Sushi Restaurant', 'pluralName': 'Sushi Restaurants', 'shortName': 'Sushi', 'icon': {'prefix': 'https://ss3.4sqi.net/img/categories_v2/food/sushi_', 'suffix': '.png'}, 'primary': True}]",v-1603876301,False,
330,54027201498e07039e950ed9,Sushi House Japanese Restaurant,"{'address': '8360 kennedy road, Unit B2', 'crossStreet': 'Kennedy rd and hwy 7', 'lat': 43.85935220625758, 'lng': -79.30410673388205, 'labeledLatLngs': [{'label': 'display', 'lat': 43.85935220625758, 'lng': -79.30410673388205}], 'postalCode': 'L3R 9W5', 'cc': 'CA', 'city': 'Markham', 'state': 'ON', 'country': 'Canada', 'formattedAddress': ['8360 kennedy road, Unit B2 (Kennedy rd and hwy 7)', 'Markham ON L3R 9W5', 'Canada']}","[{'id': '4bf58dd8d48988d111941735', 'name': 'Japanese Restaurant', 'pluralName': 'Japanese Restaurants', 'shortName': 'Japanese', 'icon': {'prefix': 'https://ss3.4sqi.net/img/categories_v2/food/japanese_', 'suffix': '.png'}, 'primary': True}]",v-1603876301,False,
333,54ab2d3e498e83132609d3d1,Hibiki Japanese Cuisine,"{'address': '4450 Hwy 7 East', 'crossStreet': 'Hwy 7/ Main St Unionville', 'lat': 43.86126999412482, 'lng': -79.31150038042416, 'labeledLatLngs': [{'label': 'display', 'lat': 43.86126999412482, 'lng': -79.31150038042416}], 'cc': 'CA', 'city': 'Markham', 'state': 'ON', 'country': 'Canada', 'formattedAddress': ['4450 Hwy 7 East (Hwy 7/ Main St Unionville)', 'Markham ON', 'Canada']}","[{'id': '4bf58dd8d48988d111941735', 'name': 'Japanese Restaurant', 'pluralName': 'Japanese Restaurants', 'shortName': 'Japanese', 'icon': {'prefix': 'https://ss3.4sqi.net/img/categories_v2/food/japanese_', 'suffix': '.png'}, 'primary': True}]",v-1603876301,False,
334,5b5b8973c97f28003955c7d0,HCafe Japanese Cafe,"{'address': '158 Main Street Unionville', 'lat': 43.867235, 'lng': -79.312289, 'labeledLatLngs': [{'label': 'display', 'lat': 43.867235, 'lng': -79.312289}], 'postalCode': 'L3R 2G9', 'cc': 'CA', 'neighborhood': 'Unionville, Markham, ON', 'city': 'Markham', 'state': 'ON', 'country': 'Canada', 'formattedAddress': ['158 Main Street Unionville', 'Markham ON L3R 2G9', 'Canada']}","[{'id': '4bf58dd8d48988d1d0941735', 'name': 'Dessert Shop', 'pluralName': 'Dessert Shops', 'shortName': 'Desserts', 'icon': {'prefix': 'https://ss3.4sqi.net/img/categories_v2/food/dessert_', 'suffix': '.png'}, 'primary': True}]",v-1603876301,False,
335,5193eab5498ec6cc4a83b763,Dragon Rolls Japanese & Thai,"{'address': '1105 Kingston Rd', 'lat': 43.83052321412704, 'lng': -79.09609122309287, 'labeledLatLngs': [{'label': 'display', 'lat': 43.83052321412704, 'lng': -79.09609122309287}], 'postalCode': 'L1V 1B5', 'cc': 'CA', 'city': 'Pickering', 'state': 'ON', 'country': 'Canada', 'formattedAddress': ['1105 Kingston Rd', 'Pickering ON L1V 1B5', 'Canada']}","[{'id': '4bf58dd8d48988d111941735', 'name': 'Japanese Restaurant', 'pluralName': 'Japanese Restaurants', 'shortName': 'Japanese', 'icon': {'prefix': 'https://ss3.4sqi.net/img/categories_v2/food/japanese_', 'suffix': '.png'}, 'primary': True}]",v-1603876301,False,
338,4e1514c618384368edccf662,Yellowtail Japanese Cuisine,"{'address': '9255 Woodbine Ave, Unit14B', 'crossStreet': 'Btwn 16th Ave & Calvert Rd', 'lat': 43.83763724858667, 'lng': -79.36128765338377, 'labeledLatLngs': [{'label': 'display', 'lat': 43.83763724858667, 'lng': -79.36128765338377}], 'postalCode': 'L6C 1Y9', 'cc': 'CA', 'city': 'Markham', 'state': 'ON', 'country': 'Canada', 'formattedAddress': ['9255 Woodbine Ave, Unit14B (Btwn 16th Ave & Calvert Rd)', 'Markham ON L6C 1Y9', 'Canada']}","[{'id': '4bf58dd8d48988d111941735', 'name': 'Japanese Restaurant', 'pluralName': 'Japanese Restaurants', 'shortName': 'Japanese', 'icon': {'prefix': 'https://ss3.4sqi.net/img/categories_v2/food/japanese_', 'suffix': '.png'}, 'primary': True}]",v-1603876301,False,
342,4b8706c1f964a5202fac31e3,Kaze Japanese Cuisine,"{'lat': 43.870028, 'lng': -79.361601, 'labeledLatLngs': [{'label': 'display', 'lat': 43.870028, 'lng': -79.361601}], 'cc': 'CA', 'country': 'Canada', 'formattedAddress': ['Canada']}","[{'id': '4bf58dd8d48988d111941735', 'name': 'Japanese Restaurant', 'pluralName': 'Japanese Restaurants', 'shortName': 'Japanese', 'icon': {'prefix': 'https://ss3.4sqi.net/img/categories_v2/food/japanese_', 'suffix': '.png'}, 'primary': True}]",v-1603876301,False,
344,4bf9abb04a67c928d44627cf,Taroko Japanese Shabu-Shabu,"{'address': '505 highway #7 East Unit 88 Thornhill,Ontario', 'lat': 43.842879, 'lng': -79.386369, 'labeledLatLngs': [{'label': 'display', 'lat': 43.842879, 'lng': -79.386369}], 'postalCode': 'L3T 7T1', 'cc': 'CA', 'city': 'Markham', 'state': 'ON', 'country': 'Canada', 'formattedAddress': ['505 highway #7 East Unit 88 Thornhill,Ontario', 'Markham ON L3T 7T1', 'Canada']}","[{'id': '4bf58dd8d48988d111941735', 'name': 'Japanese Restaurant', 'pluralName': 'Japanese Restaurants', 'shortName': 'Japanese', 'icon': {'prefix': 'https://ss3.4sqi.net/img/categories_v2/food/japanese_', 'suffix': '.png'}, 'primary': True}]",v-1603876301,False,
345,5c23d8c89cadd9002ceb30d1,Akasaka Japanese Restaurant,"{'address': 'Unit L10-12, 280 W Beaver Creek Rd', 'lat': 43.843561, 'lng': -79.388196, 'labeledLatLngs': [{'label': 'display', 'lat': 43.843561, 'lng': -79.388196}], 'postalCode': 'L4B 0E7', 'cc': 'CA', 'city': 'Richmond Hill', 'state': 'ON', 'country': 'Canada', 'formattedAddress': ['Unit L10-12, 280 W Beaver Creek Rd', 'Richmond Hill ON L4B 0E7', 'Canada']}","[{'id': '4bf58dd8d48988d111941735', 'name': 'Japanese Restaurant', 'pluralName': 'Japanese Restaurants', 'shortName': 'Japanese', 'icon': {'prefix': 'https://ss3.4sqi.net/img/categories_v2/food/japanese_', 'suffix': '.png'}, 'primary': True}]",v-1603876301,False,
346,565d38e4498ea116b5fd125a,Sumo Japanese Cuisine,"{'address': '115 Times Ave', 'lat': 43.841799, 'lng': -79.391596, 'labeledLatLngs': [{'label': 'display', 'lat': 43.841799, 'lng': -79.391596}], 'postalCode': 'L3T 0A2', 'cc': 'CA', 'city': 'Thornhill', 'state': 'ON', 'country': 'Canada', 'formattedAddress': ['115 Times Ave', 'Thornhill ON L3T 0A2', 'Canada']}","[{'id': '4bf58dd8d48988d1c4941735', 'name': 'Restaurant', 'pluralName': 'Restaurants', 'shortName': 'Restaurant', 'icon': {'prefix': 'https://ss3.4sqi.net/img/categories_v2/food/default_', 'suffix': '.png'}, 'primary': True}]",v-1603876301,False,
347,5b4bac2c16fa04002cd633d3,Reddoor Japanese Inspired Beauty Care,"{'address': '40 Vogell road', 'crossStreet': '16th Ave and Hwy404', 'lat': 43.86643458783524, 'lng': -79.38162803649902, 'labeledLatLngs': [{'label': 'display', 'lat': 43.86643458783524, 'lng': -79.38162803649902}], 'postalCode': 'M4B 3K6', 'cc': 'CA', 'city': 'Richmond Hill', 'state': 'Ont', 'country': 'Canada', 'formattedAddress': ['40 Vogell road (16th Ave and Hwy404)', 'Richmond Hill Ont M4B 3K6', 'Canada']}","[{'id': '4bf58dd8d48988d1ed941735', 'name': 'Spa', 'pluralName': 'Spas', 'shortName': 'Spa', 'icon': {'prefix': 'https://ss3.4sqi.net/img/categories_v2/shops/spa_', 'suffix': '.png'}, 'primary': True}]",v-1603876301,False,
495,4ae354f7f964a520919321e3,Kenzo Ramen,"{'address': '138 Dundas St. W', 'crossStreet': 'at Elizabeth St.', 'lat': 43.65554007474909, 'lng': -79.38486599350118, 'labeledLatLngs': [{'label': 'display', 'lat': 43.65554007474909, 'lng': -79.38486599350118}], 'postalCode': 'M5G 1C3', 'cc': 'CA', 'city': 'Toronto', 'state': 'ON', 'country': 'Canada', 'formattedAddress': ['138 Dundas St. W (at Elizabeth St.)', 'Toronto ON M5G 1C3', 'Canada']}","[{'id': '55a59bace4b013909087cb24', 'name': 'Ramen Restaurant', 'pluralName': 'Ramen Restaurants', 'shortName': 'Ramen', 'icon': {'prefix': 'https://ss3.4sqi.net/img/categories_v2/food/ramen_', 'suffix': '.png'}, 'primary': True}]",v-1603876302,False,
499,4b999927f964a5207c8635e3,NAMI,"{'address': '55 Adelaide Street East', 'crossStreet': 'at Church street', 'lat': 43.650853361785124, 'lng': -79.37588746641697, 'labeledLatLngs': [{'label': 'display', 'lat': 43.650853361785124, 'lng': -79.37588746641697}], 'postalCode': 'M5C 1K6', 'cc': 'CA', 'city': 'Toronto', 'state': 'ON', 'country': 'Canada', 'formattedAddress': ['55 Adelaide Street East (at Church street)', 'Toronto ON M5C 1K6', 'Canada']}","[{'id': '4bf58dd8d48988d111941735', 'name': 'Japanese Restaurant', 'pluralName': 'Japanese Restaurants', 'shortName': 'Japanese', 'icon': {'prefix': 'https://ss3.4sqi.net/img/categories_v2/food/japanese_', 'suffix': '.png'}, 'primary': True}]",v-1603876302,False,
569,4d55e38996ed5481c5120e70,Japanese Restaurant Sushi Sushi,"{'address': 'Erin Mills Pkwy', 'crossStreet': 'Millcreek', 'lat': 43.577807438745936, 'lng': -79.72178348902301, 'labeledLatLngs': [{'label': 'display', 'lat': 43.577807438745936, 'lng': -79.72178348902301}], 'cc': 'CA', 'city': 'Mississauga', 'state': 'ON', 'country': 'Canada', 'formattedAddress': ['Erin Mills Pkwy (Millcreek)', 'Mississauga ON', 'Canada']}",[],v-1603876303,False,
578,4b12efd8f964a5202e9123e3,Prince Japanese Steakhouse,"{'address': '5555 Eglinton Avenue West', 'crossStreet': 'Eglinton & Spectrum', 'lat': 43.64895193833179, 'lng': -79.60505230715219, 'labeledLatLngs': [{'label': 'display', 'lat': 43.64895193833179, 'lng': -79.60505230715219}], 'postalCode': 'M9C 5M1', 'cc': 'CA', 'neighborhood': 'Eringate', 'city': 'Toronto', 'state': 'ON', 'country': 'Canada', 'formattedAddress': ['5555 Eglinton Avenue West (Eglinton & Spectrum)', 'Toronto ON M9C 5M1', 'Canada']}","[{'id': '4bf58dd8d48988d111941735', 'name': 'Japanese Restaurant', 'pluralName': 'Japanese Restaurants', 'shortName': 'Japanese', 'icon': {'prefix': 'https://ss3.4sqi.net/img/categories_v2/food/japanese_', 'suffix': '.png'}, 'primary': True}]",v-1603876303,False,
582,4bdafd21c79cc9282f8880e9,Semi Korean & Japanese,"{'address': '2580 Shepard Ave', 'lat': 43.581078, 'lng': -79.614995, 'labeledLatLngs': [{'label': 'display', 'lat': 43.581078, 'lng': -79.614995}], 'cc': 'CA', 'city': 'Mississauga', 'state': 'ON', 'country': 'Canada', 'formattedAddress': ['2580 Shepard Ave', 'Mississauga ON', 'Canada']}","[{'id': '4bf58dd8d48988d113941735', 'name': 'Korean Restaurant', 'pluralName': 'Korean Restaurants', 'shortName': 'Korean', 'icon': {'prefix': 'https://ss3.4sqi.net/img/categories_v2/food/korean_', 'suffix': '.png'}, 'primary': True}]",v-1603876303,False,
587,51745996e4b09fc943c3d6f9,Kariya Park (Japanese Zen Garden),"{'lat': 43.589262360963126, 'lng': -79.63373747958069, 'labeledLatLngs': [{'label': 'display', 'lat': 43.589262360963126, 'lng': -79.63373747958069}], 'cc': 'CA', 'country': 'Canada', 'formattedAddress': ['Canada']}","[{'id': '4bf58dd8d48988d15a941735', 'name': 'Garden', 'pluralName': 'Gardens', 'shortName': 'Garden', 'icon': {'prefix': 'https://ss3.4sqi.net/img/categories_v2/parks_outdoors/garden_', 'suffix': '.png'}, 'primary': True}]",v-1603876303,False,
591,4bf723225efe2d7fe9806834,Iron Chef Japanese Steakhouse Asian Cuisine,"{'address': '4920 Tomken Rd', 'crossStreet': 'at Eglinton Ave. E', 'lat': 43.6256606808345, 'lng': -79.63092031082013, 'labeledLatLngs': [{'label': 'display', 'lat': 43.6256606808345, 'lng': -79.63092031082013}], 'postalCode': 'L4Z 4A1', 'cc': 'CA', 'city': 'Mississauga', 'state': 'ON', 'country': 'Canada', 'formattedAddress': ['4920 Tomken Rd (at Eglinton Ave. E)', 'Mississauga ON L4Z 4A1', 'Canada']}","[{'id': '4bf58dd8d48988d111941735', 'name': 'Japanese Restaurant', 'pluralName': 'Japanese Restaurants', 'shortName': 'Japanese', 'icon': {'prefix': 'https://ss3.4sqi.net/img/categories_v2/food/japanese_', 'suffix': '.png'}, 'primary': True}]",v-1603876303,False,
599,5b68793931ac6c0039ccbdfd,Wind Japanese & Thai,"{'address': '6485 Mississauga Rd', 'crossStreet': 'Kitimat Rd', 'lat': 43.598128, 'lng': -79.73516, 'labeledLatLngs': [{'label': 'display', 'lat': 43.598128, 'lng': -79.73516}], 'postalCode': 'L5N 1A6', 'cc': 'CA', 'city': 'Mississauga', 'state': 'ON', 'country': 'Canada', 'formattedAddress': ['6485 Mississauga Rd (Kitimat Rd)', 'Mississauga ON L5N 1A6', 'Canada']}","[{'id': '4bf58dd8d48988d111941735', 'name': 'Japanese Restaurant', 'pluralName': 'Japanese Restaurants', 'shortName': 'Japanese', 'icon': {'prefix': 'https://ss3.4sqi.net/img/categories_v2/food/japanese_', 'suffix': '.png'}, 'primary': True}]",v-1603876303,False,
644,4d1397d2ffa1224b8ac7a1ad,Odine Japanese & Thai Fusion,"{'address': '269 Kingston Rd. E', 'lat': 43.86400455800639, 'lng': -79.01237931095496, 'labeledLatLngs': [{'label': 'display', 'lat': 43.86400455800639, 'lng': -79.01237931095496}], 'postalCode': 'L1Z 0K5', 'cc': 'CA', 'city': 'Ajax', 'state': 'ON', 'country': 'Canada', 'formattedAddress': ['269 Kingston Rd. E', 'Ajax ON L1Z 0K5', 'Canada']}","[{'id': '4bf58dd8d48988d111941735', 'name': 'Japanese Restaurant', 'pluralName': 'Japanese Restaurants', 'shortName': 'Japanese', 'icon': {'prefix': 'https://ss3.4sqi.net/img/categories_v2/food/japanese_', 'suffix': '.png'}, 'primary': True}]",v-1603876303,False,
792,4beb2c0ba9900f475b7a1740,Ninki Sushi,"{'address': '40 King St W', 'crossStreet': 'at Bay St', 'lat': 43.649812174244005, 'lng': -79.37951837924346, 'labeledLatLngs': [{'label': 'display', 'lat': 43.649812174244005, 'lng': -79.37951837924346}], 'postalCode': 'M5H 1A1', 'cc': 'CA', 'neighborhood': 'Financial District', 'city': 'Toronto', 'state': 'ON', 'country': 'Canada', 'formattedAddress': ['40 King St W (at Bay St)', 'Toronto ON M5H 1A1', 'Canada']}","[{'id': '4bf58dd8d48988d111941735', 'name': 'Japanese Restaurant', 'pluralName': 'Japanese Restaurants', 'shortName': 'Japanese', 'icon': {'prefix': 'https://ss3.4sqi.net/img/categories_v2/food/japanese_', 'suffix': '.png'}, 'primary': True}]",v-1603876304,False,
1193,55074b57498ef35eeeaafe29,Uncle Tetsu's Cheesecake (Uncle Tetsu's Japanese Cheesecake),"{'address': '598 Bay St', 'crossStreet': 'at Dundas St', 'lat': 43.65606287245643, 'lng': -79.38369472446465, 'labeledLatLngs': [{'label': 'display', 'lat': 43.65606287245643, 'lng': -79.38369472446465}], 'postalCode': 'M5G 1M5', 'cc': 'CA', 'city': 'Toronto', 'state': 'ON', 'country': 'Canada', 'formattedAddress': ['598 Bay St (at Dundas St)', 'Toronto ON M5G 1M5', 'Canada']}","[{'id': '4bf58dd8d48988d1d0941735', 'name': 'Dessert Shop', 'pluralName': 'Dessert Shops', 'shortName': 'Desserts', 'icon': {'prefix': 'https://ss3.4sqi.net/img/categories_v2/food/dessert_', 'suffix': '.png'}, 'primary': True}]",v-1603876306,False,
1345,4bd227a3a8b3a5934248675f,Inaho Japanese Restaurant,"{'address': '155 E Beaver Creek Rd', 'lat': 43.849150038865865, 'lng': -79.3776336833497, 'labeledLatLngs': [{'label': 'display', 'lat': 43.849150038865865, 'lng': -79.3776336833497}], 'postalCode': 'L4B 2N1', 'cc': 'CA', 'city': 'Richmond Hill', 'state': 'ON', 'country': 'Canada', 'formattedAddress': ['155 E Beaver Creek Rd', 'Richmond Hill ON L4B 2N1', 'Canada']}","[{'id': '4bf58dd8d48988d111941735', 'name': 'Japanese Restaurant', 'pluralName': 'Japanese Restaurants', 'shortName': 'Japanese', 'icon': {'prefix': 'https://ss3.4sqi.net/img/categories_v2/food/japanese_', 'suffix': '.png'}, 'primary': True}]",v-1603876307,False,
1348,4b943231f964a5200b6e34e3,Airake Japanese Restaurant,"{'address': '7700 Bathurst Street', 'lat': 43.81681, 'lng': -79.4516, 'labeledLatLngs': [{'label': 'display', 'lat': 43.81681, 'lng': -79.4516}], 'postalCode': 'L4J', 'cc': 'CA', 'city': 'Vaughan', 'state': 'ON', 'country': 'Canada', 'formattedAddress': ['7700 Bathurst Street', 'Vaughan ON L4J', 'Canada']}",[],v-1603876307,False,
1349,4f46f34de4b0cf7a0499d1b0,Ki Japanese Restaurant,"{'address': '181 Bay Street', 'lat': 43.84489899243923, 'lng': -79.43097494708144, 'labeledLatLngs': [{'label': 'display', 'lat': 43.84489899243923, 'lng': -79.43097494708144}], 'cc': 'CA', 'city': 'Toronto', 'state': 'ON', 'country': 'Canada', 'formattedAddress': ['181 Bay Street', 'Toronto ON', 'Canada']}","[{'id': '4bf58dd8d48988d111941735', 'name': 'Japanese Restaurant', 'pluralName': 'Japanese Restaurants', 'shortName': 'Japanese', 'icon': {'prefix': 'https://ss3.4sqi.net/img/categories_v2/food/japanese_', 'suffix': '.png'}, 'primary': True}]",v-1603876307,False,
1388,4b2ab945f964a5205eae24e3,Ariake Japanese Restaurant,"{'address': '7700 Bathurst St', 'crossStreet': 'Centre St', 'lat': 43.80983, 'lng': -79.45243, 'labeledLatLngs': [{'label': 'display', 'lat': 43.80983, 'lng': -79.45243}], 'cc': 'CA', 'city': 'Thornhill', 'state': 'ON', 'country': 'Canada', 'formattedAddress': ['7700 Bathurst St (Centre St)', 'Thornhill ON', 'Canada']}","[{'id': '4bf58dd8d48988d1d2941735', 'name': 'Sushi Restaurant', 'pluralName': 'Sushi Restaurants', 'shortName': 'Sushi', 'icon': {'prefix': 'https://ss3.4sqi.net/img/categories_v2/food/sushi_', 'suffix': '.png'}, 'primary': True}]",v-1603876307,False,
1549,4ceea443b80da093a59e2800,Kotta Japanese Restaurant,"{'address': '1226 King St W', 'crossStreet': 'at Dufferin', 'lat': 43.63874998596859, 'lng': -79.42835029903067, 'labeledLatLngs': [{'label': 'display', 'lat': 43.63874998596859, 'lng': -79.42835029903067}], 'cc': 'CA', 'city': 'Toronto', 'state': 'ON', 'country': 'Canada', 'formattedAddress': ['1226 King St W (at Dufferin)', 'Toronto ON', 'Canada']}","[{'id': '4bf58dd8d48988d111941735', 'name': 'Japanese Restaurant', 'pluralName': 'Japanese Restaurants', 'shortName': 'Japanese', 'icon': {'prefix': 'https://ss3.4sqi.net/img/categories_v2/food/japanese_', 'suffix': '.png'}, 'primary': True}]",v-1603876308,False,
1616,5a036eaf588e3631c784b5ba,Yoi,"{'address': '1800 Sheppard Ave West', 'crossStreet': 'Don Mills Rd', 'lat': 43.778244, 'lng': -79.34301, 'labeledLatLngs': [{'label': 'display', 'lat': 43.778244, 'lng': -79.34301}], 'postalCode': 'M2J 5A7', 'cc': 'CA', 'city': 'Toronto', 'state': 'ON', 'country': 'Canada', 'formattedAddress': ['1800 Sheppard Ave West (Don Mills Rd)', 'Toronto ON M2J 5A7', 'Canada']}","[{'id': '4bf58dd8d48988d111941735', 'name': 'Japanese Restaurant', 'pluralName': 'Japanese Restaurants', 'shortName': 'Japanese', 'icon': {'prefix': 'https://ss3.4sqi.net/img/categories_v2/food/japanese_', 'suffix': '.png'}, 'primary': True}]",v-1603876308,False,
1692,5ba4292112c8f0002ce57edd,Uncle Tetsu’s Japanese Cheesecake Pop-Up,"{'address': '9350 Yonge St', 'lat': 43.854154, 'lng': -79.436009, 'labeledLatLngs': [{'label': 'display', 'lat': 43.854154, 'lng': -79.436009}], 'postalCode': 'L4C 5G2', 'cc': 'CA', 'city': 'Richmond Hill', 'state': 'ON', 'country': 'Canada', 'formattedAddress': ['9350 Yonge St', 'Richmond Hill ON L4C 5G2', 'Canada']}","[{'id': '4bf58dd8d48988d16a941735', 'name': 'Bakery', 'pluralName': 'Bakeries', 'shortName': 'Bakery', 'icon': {'prefix': 'https://ss3.4sqi.net/img/categories_v2/food/bakery_', 'suffix': '.png'}, 'primary': True}]",v-1603876309,False,
1716,5787c18b498e6faa6ae1f44d,Sakawa Coffee,"{'address': '867 Danforth Ave', 'lat': 43.679906, 'lng': -79.339807, 'labeledLatLngs': [{'label': 'display', 'lat': 43.679906, 'lng': -79.339807}], 'postalCode': 'M4J 1L8', 'cc': 'CA', 'city': 'Toronto', 'state': 'ON', 'country': 'Canada', 'formattedAddress': ['867 Danforth Ave', 'Toronto ON M4J 1L8', 'Canada']}","[{'id': '4bf58dd8d48988d16d941735', 'name': 'Café', 'pluralName': 'Cafés', 'shortName': 'Café', 'icon': {'prefix': 'https://ss3.4sqi.net/img/categories_v2/food/cafe_', 'suffix': '.png'}, 'primary': True}]",v-1603876309,False,
2383,4f1b794be4b0a62719238e75,Kyoto Japanese Cuisine,"{'address': '3883 Rutherford Road', 'lat': 43.82528762375212, 'lng': -79.55727880036562, 'labeledLatLngs': [{'label': 'display', 'lat': 43.82528762375212, 'lng': -79.55727880036562}], 'postalCode': 'L4L 9R8', 'cc': 'CA', 'city': 'Vaughan', 'state': 'ON', 'country': 'Canada', 'formattedAddress': ['3883 Rutherford Road', 'Vaughan ON L4L 9R8', 'Canada']}","[{'id': '4bf58dd8d48988d1d2941735', 'name': 'Sushi Restaurant', 'pluralName': 'Sushi Restaurants', 'shortName': 'Sushi', 'icon': {'prefix': 'https://ss3.4sqi.net/img/categories_v2/food/sushi_', 'suffix': '.png'}, 'primary': True}]",v-1603876313,False,
2559,4bd0c3b8b221c9b63c5cd4d0,Issmi Sushi,"{'address': '1984 Avenue Road', 'lat': 43.73526929359584, 'lng': -79.4199832843755, 'labeledLatLngs': [{'label': 'display', 'lat': 43.73526929359584, 'lng': -79.4199832843755}], 'postalCode': 'M5M 4A4', 'cc': 'CA', 'city': 'Toronto', 'state': 'ON', 'country': 'Canada', 'formattedAddress': ['1984 Avenue Road', 'Toronto ON M5M 4A4', 'Canada']}","[{'id': '4bf58dd8d48988d1d2941735', 'name': 'Sushi Restaurant', 'pluralName': 'Sushi Restaurants', 'shortName': 'Sushi', 'icon': {'prefix': 'https://ss3.4sqi.net/img/categories_v2/food/sushi_', 'suffix': '.png'}, 'primary': True}]",v-1603876315,False,
2763,4b8bffc6f964a52076b732e3,Ichiban Fish House,"{'address': '15 Spring Garden Ave.', 'crossStreet': 'at Yonge St.', 'lat': 43.76599495334784, 'lng': -79.4108127227573, 'labeledLatLngs': [{'label': 'display', 'lat': 43.76599495334784, 'lng': -79.4108127227573}], 'postalCode': 'M2N 3G1', 'cc': 'CA', 'city': 'North York', 'state': 'ON', 'country': 'Canada', 'formattedAddress': ['15 Spring Garden Ave. (at Yonge St.)', 'North York ON M2N 3G1', 'Canada']}","[{'id': '4bf58dd8d48988d111941735', 'name': 'Japanese Restaurant', 'pluralName': 'Japanese Restaurants', 'shortName': 'Japanese', 'icon': {'prefix': 'https://ss3.4sqi.net/img/categories_v2/food/japanese_', 'suffix': '.png'}, 'primary': True}]",v-1603876316,False,
2974,4aeb1ce4f964a52086be21e3,Ni-Ji,"{'address': '1095 Ellesmere Rd', 'crossStreet': 'At Midland Ave', 'lat': 43.767625179408995, 'lng': -79.27139940060562, 'labeledLatLngs': [{'label': 'display', 'lat': 43.767625179408995, 'lng': -79.27139940060562}], 'postalCode': 'M1P 2W9', 'cc': 'CA', 'city': 'Toronto', 'state': 'ON', 'country': 'Canada', 'formattedAddress': ['1095 Ellesmere Rd (At Midland Ave)', 'Toronto ON M1P 2W9', 'Canada']}","[{'id': '4bf58dd8d48988d111941735', 'name': 'Japanese Restaurant', 'pluralName': 'Japanese Restaurants', 'shortName': 'Japanese', 'icon': {'prefix': 'https://ss3.4sqi.net/img/categories_v2/food/japanese_', 'suffix': '.png'}, 'primary': True}]",v-1603876318,False,
3646,519d630f498e595756dad4d5,Sonoya Japanese Noodle House,"{'address': '3255 Highway 7 E', 'crossStreet': 'Unit 22 First Markham Place', 'lat': 43.848851050715375, 'lng': -79.3484083724295, 'labeledLatLngs': [{'label': 'display', 'lat': 43.848851050715375, 'lng': -79.3484083724295}], 'postalCode': 'L3R 3P3', 'cc': 'CA', 'city': 'Markham', 'state': 'ON', 'country': 'Canada', 'formattedAddress': ['3255 Highway 7 E (Unit 22 First Markham Place)', 'Markham ON L3R 3P3', 'Canada']}","[{'id': '4bf58dd8d48988d1d1941735', 'name': 'Noodle House', 'pluralName': 'Noodle Houses', 'shortName': 'Noodles', 'icon': {'prefix': 'https://ss3.4sqi.net/img/categories_v2/food/ramen_', 'suffix': '.png'}, 'primary': True}]",v-1603876324,False,
3993,50ca2d39e4b0d44e4a55fa63,168 Sushi Japanese Buffet,"{'lat': 43.52977812128024, 'lng': -79.6731866238839, 'labeledLatLngs': [{'label': 'display', 'lat': 43.52977812128024, 'lng': -79.6731866238839}], 'cc': 'CA', 'country': 'Canada', 'formattedAddress': ['Canada']}","[{'id': '4bf58dd8d48988d1d2941735', 'name': 'Sushi Restaurant', 'pluralName': 'Sushi Restaurants', 'shortName': 'Sushi', 'icon': {'prefix': 'https://ss3.4sqi.net/img/categories_v2/food/sushi_', 'suffix': '.png'}, 'primary': True}]",v-1603876326,False,
4097,56293468498eef10bd639860,Akimi Japanese Cuisine,"{'address': '1285 Elgin Mills E1', 'crossStreet': 'Leslie', 'lat': 43.89628521901552, 'lng': -79.40339988253226, 'labeledLatLngs': [{'label': 'display', 'lat': 43.89628521901552, 'lng': -79.40339988253226}], 'postalCode': 'L4S 0B5', 'cc': 'CA', 'city': 'Richmond Hill', 'state': 'ON', 'country': 'Canada', 'formattedAddress': ['1285 Elgin Mills E1 (Leslie)', 'Richmond Hill ON L4S 0B5', 'Canada']}","[{'id': '4bf58dd8d48988d1d2941735', 'name': 'Sushi Restaurant', 'pluralName': 'Sushi Restaurants', 'shortName': 'Sushi', 'icon': {'prefix': 'https://ss3.4sqi.net/img/categories_v2/food/sushi_', 'suffix': '.png'}, 'primary': True}]",v-1603876327,False,
